sample	geoDis	latitude	longitude	country_name	state	region	site_name	elevation	countN	known	hetero	percpoly
SEEDGWAS1003	1133.5947249	20.485433	-89.732539	Mexico	NA		MUNA	45	352867	375119	12518	0.0333707436840043
SEEDGWAS1004	437.56424219	20.969048	-97.382255	Mexico	NA		TUXPAM	11	339452	388534	14680	0.0377830511615457
SEEDGWAS1006	6544.85670277	-23.267981	-57.309104	South America	NA	CONCEPCION	LORETO, SAN JOSE-MI	132	359332	368654	12295	0.0333510554612184
SEEDGWAS1007	4215.27335852	8.433333333	-62.46666667	Central America	NA	T.F. AMAZONAS	LOS MANCALES, SIERRA IMATACA	43	424503	303483	8078	0.0266176359137085
SEEDGWAS1008	3176.88272309	3.85	-74.91666667	Central America	NA	PURIFICACION	SALDANA	297	371511	356475	9675	0.0271407532084999
SEEDGWAS1009	1292.64162198	19.58333333	-88.05	Mexico	NA	FELIPE CARRILLO PUERTO	SANTA CRUZ A 35 KM. DE DZULA A SUR SELVA DENT	12	286760	441226	18910	0.0428578551581276
SEEDGWAS101	396.443994088	20.43027778	-97.382222	Mexico	NA	PAPANTLA DE OLARTE	EL TAJIN	109	321449	406537	11793	0.0290084297370227
SEEDGWAS1011	838.295169291	16.332904	-92.564373	Mexico	NA		VENUSTIANO CARRANZA	700	321903	406083	16303	0.0401469650293167
SEEDGWAS1012	838.295169291	16.332904	-92.564373	Mexico	NA		VENUSTIANO CARRANZA	700	356616	371370	11172	0.0300832054285483
SEEDGWAS1014	426.64576185	21.51666667	-98.38333333	Mexico	NA		TEMPOAL	42	361971	366015	12919	0.0352963676352062
SEEDGWAS1015	127.693976203	17.167363	-99.537659	Mexico	NA		TIERRA COLORADA	290	351734	376252	14710	0.0390961376949491
SEEDGWAS1019	388.251250858	21.296297	-98.746577	Mexico	NA	TAMAZUNCHALE	RANCHO DEL TEPETATE	108	330268	397718	13551	0.0340718800758326
SEEDGWAS1020	805.927687264	16.56666667	-92.81666667	Mexico	NA		ACALA	449	350425	377561	13670	0.0362060700125278
SEEDGWAS1022	783.192327394	16.71666667	-93	Mexico	NA	CHIAPA DE CORZO	RIVERA DE CUPIA	420	367625	360361	12765	0.0354228121245085
SEEDGWAS1023	768.605443369	16.25	-93.26666667	Mexico	NA		VILLA FLORES	572	371259	356727	12320	0.0345362139675438
SEEDGWAS1024	770.203455163	16.2	-93.26666667	Mexico	NA		VILLA CORZO	569	395568	332418	10849	0.0326366201589565
SEEDGWAS1025	805.927687264	16.56666667	-92.81666667	Mexico	NA		ACALA	449	187523	540463	32628	0.0603704601425074
SEEDGWAS1026	7188.61205667	-35.96666667	-62.7	South America	NA	BUENOS AIRES	TRENQUE LAUQUEN	90	420026	307960	9456	0.0307052864008313
SEEDGWAS1027	6639.44313093	-27.01666667	-59.85	South America	NA	CHACO	PRESIDENCIA DE LA PLAZA	76	375978	352008	11560	0.0328401627235745
SEEDGWAS1029	709.281654173	16.7	-93.71666667	Mexico	NA		CINTALAPA	547	320236	407750	16019	0.0392863274064991
SEEDGWAS1030	428.241891481	21.06666667	-97.63333333	Mexico	NA		TEMAPACHE	229	335178	392808	13647	0.0347421641107106
SEEDGWAS1031	709.281654173	16.7	-93.71666667	Mexico	NA		CINTALAPA	547	377040	350946	11845	0.0337516313051011
SEEDGWAS1032	1292.64162198	19.58333333	-88.05	Mexico	NA	FELIPE CARRILLO PUERTO	EJIDO PIEDRAS NEGRAS	12	418114	309872	9048	0.0291991531987401
SEEDGWAS1033	158.622708338	18.317643	-101.728267	Mexico	NA		COAHUAYUTLA	342	386504	341482	12735	0.0372933273203273
SEEDGWAS1034	373.161615911	19.38333333	-96.96666667	Mexico	NA		TEOCELO	1167	348665	379321	14032	0.0369924153948766
SEEDGWAS1035	557.051999646	22.81666667	-98.43333333	Mexico	NA		GONZALEZ	84	400797	327189	9934	0.0303616564126545
SEEDGWAS1036	752.468609968	17.1	-93.21666667	Mexico	NA		COPAINALA	523	402512	325474	11462	0.0352163306439224
SEEDGWAS1037	165.09497534	17.971798	-101.799996	Mexico	NA		LA UNION	106	383453	344533	8176	0.0237306731140413
SEEDGWAS1039	7030.88780946	-26.63	-54.13	South America	NA	MISIONES	SAN PEDRO, TOBUNA	550	337150	390836	15053	0.0385148758046853
SEEDGWAS104	1109.79524182	19.744273	-89.82814	Mexico	NA		HOPELCHEN	76	326476	401510	12571	0.0313093073646983
SEEDGWAS1040	6688.05183217	-26.142484	-58.240208	South America	NA	FORMOSA	PILCOMAYO, JOSE CANCIO	62	237906	490080	24150	0.0492776689520078
SEEDGWAS1041	6586.94938582	-25.3	-58.75	South America	NA	FORMOSA	PILAGAS, TRES LAGUNAS	88	401256	326730	10195	0.0312031340862486
SEEDGWAS1042	6311.20943128	-24.164012	-61.333411	South America	NA	FORMOSA	BERMEJO, DR. GUMERCINDO SAYAGO	166	345878	382108	11783	0.0308368314717305
SEEDGWAS1043	875.280564226	16.9	-92.08	Mexico	NA		OCOSINGO	874	363638	364348	13217	0.0362757583409268
SEEDGWAS1044	875.280564226	16.9	-92.08	Mexico	NA		OCOSINGO	874	342470	385516	14658	0.0380217682275184
SEEDGWAS1045	386.075433674	21.038899	-98.277964	Mexico	NA	HUAUTLA	TAMOYON I	406	368287	359699	12295	0.0341813571903175
SEEDGWAS1048	395.406554419	21.10534	-98.222282	Mexico	NA	HUAUTLA	CHALINGO, CAMINO A SACUALA	249	342885	385101	13113	0.034050807450513
SEEDGWAS1049	395.406554419	21.10534	-98.222282	Mexico	NA	HUAUTLA	CHALINGO, BARRIO EL PALMAR	249	344454	383532	12560	0.0327482452572406
SEEDGWAS105	1098.728068	20.601679	-90.102679	Mexico	NA		SANTA ROSA	7	414854	313132	9995	0.0319194461121827
SEEDGWAS1050	384.176925848	21.029685	-98.296549	Mexico	NA	HUAUTLA	TZACUALA, BARRIO CHOTE S/N	500	324991	402995	15130	0.0375438901227062
SEEDGWAS1051	384.176925848	21.029685	-98.296549	Mexico	NA	HUAUTLA	TZACUALA, GUILLERMO ROSEL	500	379510	348476	12295	0.0352822002089097
SEEDGWAS106	1246.04780393	15.827325	-88.760766	Central America	NA	IZABAL	MIRAMAR LIVINGSTON	26	380774	347212	11088	0.0319343801481516
SEEDGWAS107	1077.21281406	16.681491	-90.193023	Central America	NA	PETEN	SALINA ANCHURA	151	351517	376469	11116	0.0295269995670294
SEEDGWAS1085	382.152236704	20.55	-102.8	Mexico	NA		TOTOTLAN	1554	412319	315667	9172	0.0290559355269952
SEEDGWAS1087	437.045192147	22.031961	-100.21527	Mexico	NA		SAN JOSE DE GALLINAS	1057	481459	246527	6698	0.0271694378303391
SEEDGWAS1088	441.766393778	22.05427	-99.816363	Mexico	NA		SAN FRANCISCO	1078	419576	308410	9740	0.0315813365325379
SEEDGWAS1091	831.590756791	25.552339	-100.9672228	Mexico	NA	RAMOS ARISPE	LAS PETACAS	1406	442257	285729	7534	0.0263676420664336
SEEDGWAS1095	110.57241365	18.75	-99.45	Mexico	NA		COCOYOTLA	1051	653450	74536	693	0.00929752066115703
SEEDGWAS1096	118.578912379	18.68	-99.3	Mexico	NA	PUENTE DE IXTLA	AHUEHUETZINGO	968	397443	330543	11584	0.0350453647483081
SEEDGWAS1097	1132.02349301	27.15888889	-105.2977778	Mexico	NA	VALLE DE ALLENDE	SANTA CRUZ	1487	428877	299109	8882	0.0296948604020608
SEEDGWAS1099	6708.90254989	-15	-49	South America	NA	GOIAS	POSTO INDIGENA CA. AREIOES	1050	352498	375488	11716	0.0312020623828192
SEEDGWAS1100	1969.94302444	9.954306	-83.99449	Central America	NA	SAN JOSE	SAN RAMON PEREZ ZELEDON	1468	357097	370889	13301	0.035862481766782
SEEDGWAS1101	2034.05194818	9.358024	-83.665901	Central America	NA	SAN JOSE	SAN JUAN PEREZ ZELEDON	673	369353	358633	6173	0.0172125822219372
SEEDGWAS1102	2136.05261266	8.820336	-82.907759	Central America	NA	PUNTARENAS	SAN RAFAEL SABALITO	915	376831	351155	12312	0.035061440104797
SEEDGWAS1103	2066.83510099	9.21809	-83.402533	Central America	NA	PUNTARENAS	SAN RAFAEL CANAS GORDAS	535	283015	444971	20981	0.0471513873937852
SEEDGWAS1104	2144.85965657	8.884242	-82.776594	Central America	NA	PUNTARENAS	MELLIZAS SABALITO	1300	364589	363397	13285	0.0365578141811848
SEEDGWAS1105	1470.83771893	14.100414	-87.105301	Central America	NA	FRANCISCO MORAZAN	SARABANDA	1704	421539	306447	9217	0.0300769790534742
SEEDGWAS1106	1044.30034156	15.344145	-90.859965	Central America	NA	QUICHE	CHICHIQUEN USPANTAN	1901	313393	414593	18181	0.0438526458478556
SEEDGWAS1107	376.465412605	16.233634	-97.28339	Mexico	NA	JAMILTEPEC	JUQUILA	1512	367329	360657	13862	0.0384354109306072
SEEDGWAS1108	386.399633002	16.35071	-97.096379	Mexico	NA		SAN PEDRO JUCHATENGO	847	379000	348986	12752	0.0365401477423163
SEEDGWAS1109	376.465412605	16.233634	-97.28339	Mexico	NA	JAMILTEPEC	JUQUILA	1512	452730	275256	7564	0.0274798732815997
SEEDGWAS1110	566.726955797	21.696608	-104.088629	Mexico	NA	MUNICIPIO LA YESCA	PUENTE DE CAMOTLAN	1181	293152	434834	20599	0.047372100617707
SEEDGWAS1111	1019.01949465	14.616667	-91.4	Central America	NA	SUCHITEPEQUEZ	FINCA SAN JAIME SANTO TOMAS	721	352018	375968	14410	0.0383277300195761
SEEDGWAS1114	3299.32379269	9.157008	-71.058506	Central America	NA		LA MACARENA	76	285058	442928	14708	0.0332062998952426
SEEDGWAS1115	3253.87984829	7.917181	-72.008076	Central America	NA	TACHIRA	QUENIQUEA	1516	304826	423160	17558	0.0414925796389073
SEEDGWAS1118	944.45182128	14.663195	-92.138837	Mexico	NA		SUCHIATE	25	392147	335839	10862	0.0323428785817014
SEEDGWAS112	1765.18615456	30.544226	-111.113435	Mexico	NA		SANTA ANA	683	385117	342869	12955	0.037784109966197
SEEDGWAS1120	332.519591399	19.96666667	-102.7166667	Mexico	NA	JIQUILPAN	LA COFRADIA	1834	437560	290426	8691	0.0299250067142749
SEEDGWAS1121	355.334243955	19.08333333	-97.03333333	Mexico	NA	COSCOMATEPEC	TEOLALPA	1486	411744	316242	10248	0.0324055628284668
SEEDGWAS1122	419.297125536	18.390306	-96.282141	Mexico	NA		LA CANDELARIA	49	356272	371714	13687	0.0368213196166946
SEEDGWAS1124	5701.30185553	-17.82886	-62.994159	South America	NA	SANTA CRUZ	CABALLERO, TAMBO	370	402829	325157	9627	0.0296072358891243
SEEDGWAS1125	5701.30185553	-17.82886	-62.994159	South America	NA	SANTA CRUZ	CABALLERO, TAMBO	370	370459	357527	13689	0.0382880174084754
SEEDGWAS1126	165.983863065	19.01666667	-99	Mexico	NA		TLALNEPANTLA	2228	363644	364342	12426	0.0341053186292
SEEDGWAS1128	905.826769649	15.7	-92.1	Mexico	NA		FRONTERA COMALAPA	726	411129	316857	9878	0.0311749464269371
SEEDGWAS113	1028.82682344	19.78333333	-90.61666667	Mexico	NA		LERMA	42	331579	396407	16773	0.0423125726841352
SEEDGWAS1130	723.411498281	16.08333333	-93.76666667	Mexico	NA		TONALA	40	389475	338511	11238	0.0331983303349079
SEEDGWAS1131	742.161371815	16.76666667	-93.38333333	Mexico	NA		OCAZOCUAUTLA	798	448699	279287	7790	0.0278924547150422
SEEDGWAS1133	904.770068895	25.2	-104.5333333	Mexico	NA		EL RODEO	1488	338454	389532	11540	0.0296252939424746
SEEDGWAS1134	902.707553696	15.37229	-92.251361	Mexico	NA		MOTOZINTLA	1346	453370	274616	7023	0.0255738922713899
SEEDGWAS1135	354.557204045	19.017868	-97.020133	Mexico	NA		CHOCAMAN	1348	330154	397832	17517	0.0440311488266404
SEEDGWAS1136	315.70637911	18.78333	-103.15	Mexico	NA	COALCOMAN	LA GUADALUPE	1025	287707	440279	22657	0.0514605511505205
SEEDGWAS1138	7519.83732871	-10.7	-38.18333333	South America	NA	SERGIPE	POCO VERDE	257	281419	446567	20752	0.0464700705605206
SEEDGWAS114	908.566369176	18.04166	-91.642471	Mexico	NA	VALLADOLID	SANTA INES	7	352936	375050	13977	0.037267031062525
SEEDGWAS1140	355.334243955	19.08333333	-97.03333333	Mexico	NA		COSCOMATEPEC	1486	359983	368003	14581	0.0396219596035902
SEEDGWAS1141	152.138862186	18.76666667	-98.98333333	Mexico	NA		AYALA	1213	414978	313008	11160	0.0356540407912897
SEEDGWAS1142	152.138862186	18.76666667	-98.98333333	Mexico	NA		AYALA	1213	408714	319272	11148	0.034916936029467
SEEDGWAS1143	905.826769649	15.7	-92.1	Mexico	NA		FRONTERA COMALAPA	726	323425	404561	13488	0.0333398424465037
SEEDGWAS1144	107.744431089	17.576119	-99.385656	Mexico	NA		TIXTLA	1345	422804	305182	9387	0.0307586948116206
SEEDGWAS1145	349.80902243	19.11666667	-97.1	Mexico	NA		ALPATLAHUA	1890	288376	439610	20017	0.0455335410932417
SEEDGWAS1146	858.855064981	16.352808	-92.359949	Mexico	NA		LAS ROSAS	1306	425741	302245	7831	0.0259094443249682
SEEDGWAS1147	815.928704636	16.602202	-92.711648	Mexico	NA		EL ZAPOTAL	738	317409	410577	18054	0.0439722634244003
SEEDGWAS1148	820.779926191	16.538454	-92.68035	Mexico	NA		TOTOLAPA	551	348392	379594	12738	0.0335569055359147
SEEDGWAS115	1068.18370812	19.766667	-90.233333	Mexico	NA		TIQUIMUL	17	444450	283536	8916	0.0314457423395971
SEEDGWAS1150	820.779926191	16.538454	-92.68035	Mexico	NA		TOTOLAPA	551	347771	380215	14100	0.0370842812619176
SEEDGWAS1151	815.928704636	16.602202	-92.711648	Mexico	NA		EL ZAPOTAL	738	386388	341598	11433	0.0334691655103367
SEEDGWAS1152	815.928704636	16.602202	-92.711648	Mexico	NA		EL ZAPOTAL	738	310604	417382	16271	0.0389834731732562
SEEDGWAS1156	835.711113756	15.86666667	-92.73333333	Mexico	NA		ANGEL ALBINO CORZO	675	391531	336455	9896	0.0294125514556181
SEEDGWAS1157	753.499724502	16.8	-93.26666667	Mexico	NA		BERRIOZABAL	902	362916	365070	13154	0.0360314460240502
SEEDGWAS116	896.752118248	18.658723	-91.759457	Mexico	NA		CEIBA PLAYA	6	424503	303483	9275	0.0305618436617537
SEEDGWAS1161	341.120184629	18.83	-97.1	Mexico	NA		ORIZABA	1230	379578	348408	12737	0.0365577139445707
SEEDGWAS1166	121.507588898	17.678521	-101.303874	Mexico	NA	PETATLAN	MURGA	123	473168	254818	5785	0.0227024778469339
SEEDGWAS1167	305.819810594	16.33333333	-98.03333333	Mexico	NA		PINOTEPA NACIONAL	172	342943	385043	13904	0.0361102526211358
SEEDGWAS1168	286.844280624	16.95513	-97.816661	Mexico	NA		JICALTEPEC	873	379751	348235	9266	0.0266084684193145
SEEDGWAS1169	478.870030927	15.75	-96.46666667	Mexico	NA		POCHUTLA	150	274888	453098	17558	0.0387509986801972
SEEDGWAS117	1003.62684684	18.572773	-90.740704	Mexico	NA		ESCARCEGA	95	369073	358913	9259	0.0257973380735721
SEEDGWAS1170	368.089405467	18.75	-103.666667	Mexico	NA		COAHUAYANA	23	320838	407148	16183	0.0397472172281333
SEEDGWAS1171	298.138593067	19.183333	-102.833333	Mexico	NA		TEPALCATEPEC	366	318456	409530	16353	0.039931140575782
SEEDGWAS1172	236.998900613	18.808584	-102.363626	Mexico	NA		EL CAJON	381	300759	427227	18317	0.0428741629157333
SEEDGWAS1173	249.526235443	19.08164	-102.373599	Mexico	NA		APATZINGAN	302	277888	450098	22297	0.0495381005914268
SEEDGWAS1174	249.526235443	19.08164	-102.373599	Mexico	NA		APATZINGAN	302	442655	285331	8405	0.0294570165877525
SEEDGWAS1175	249.526235443	19.08164	-102.373599	Mexico	NA		APATZINGAN	302	281307	446679	21199	0.0474591373223277
SEEDGWAS1176	171.627650171	16.801211	-99.365802	Mexico	NA		SAN MARCOS	102	343812	384174	12180	0.0317043839510222
SEEDGWAS1177	52.9602688428	18.300591	-100.69796	Mexico	NA		COYUCA DE CATALAN	265	297566	430420	19941	0.046329166860276
SEEDGWAS1178	22.1779156357	18.298628	-100.249473	Mexico	NA		ARCELIA	513	358594	369392	12353	0.0334414389050115
SEEDGWAS1179	298.19781758	16.409733	-98.06005	Mexico	NA	SAN MIGUEL TLACAMAMA	SAN MIGUEL TLACAMAMA	303	303943	424043	14543	0.0342960501647239
SEEDGWAS118	774.626833006	16.635756	-93.101655	Mexico	NA		COLONIA 16 DE SEPTIEMBRE	466	347053	380933	14379	0.0377467953682144
SEEDGWAS1180	257.353585627	16.735414	-98.281497	Mexico	NA		ZACOALPA	139	303373	424613	17672	0.0416190743100188
SEEDGWAS1183	669.041399118	24.041477	-99.205617	Mexico	NA	VILLA HIDALGO	SAN JUANA	220	372335	355651	11758	0.0330605003219448
SEEDGWAS1184	422.887184033	20.480001	-97.097646	Mexico	NA		GUTIERREZ ZAMORA	17	388704	339282	11153	0.0328723598658343
SEEDGWAS1185	768.605443369	16.25	-93.26666667	Mexico	NA		VILLA FLORES	572	349185	378801	11761	0.0310479644985098
SEEDGWAS1187	678.696013106	22.024349	-105.22623	Mexico	NA		EJIDO CHILAPA	15	293427	434559	19956	0.0459224178995257
SEEDGWAS1188	469.507323541	19.772796	-104.344955	Mexico	NA	AUTLAN	EL ZAPOTILLO	913	374430	353556	10706	0.0302809173087149
SEEDGWAS1189	361.681778109	18.9	-96.91666667	Mexico	NA		CORDOBA	827	259849	468137	23542	0.0502886975393955
SEEDGWAS119	805.927686498	16.5666667	-92.81666667	Mexico	NA		ACALA	428	430230	297756	9420	0.0316366420827792
SEEDGWAS1191	783.192327394	16.71666667	-93	Mexico	NA		CHIAPA DE CORZO	446	317100	410886	16052	0.0390667971164751
SEEDGWAS1192	863.564373796	15.332888	-92.659404	Mexico	NA		ESCUINTLA	93	356711	371275	12784	0.0344326981348057
SEEDGWAS1195	1265.64110311	20.85	-88.51666667	Mexico	NA		DZITAS	31	275708	452278	19901	0.0440016980706557
SEEDGWAS1196	1293.22800972	21.01666667	-88.28333333	Mexico	NA		ESPITA	28	343428	384558	15273	0.0397157255862575
SEEDGWAS1197	1339.57034166	15.281744	-88.003548	Central America	NA	CORTES	EL AGUACATE	48	267813	460173	20486	0.0445180399545388
SEEDGWAS1198	1342.66123536	15.590506	-87.891039	Central America	NA	CORTES	ALDEA MONTERREY	16	286499	441487	18008	0.0407894230181183
SEEDGWAS1199	1317.24789571	15.361949	-88.19682	Central America	NA	CORTES	NACO	131	214756	513230	25897	0.0504588586014068
SEEDGWAS12	425.874468625	20.2	-96.85	Mexico	NA		SAN RAFAEL	8	418218	309768	10408	0.0335993388600501
SEEDGWAS120	896.499873243	15.984309	-92.0992225	Mexico	NA		COLONIA ALTAMIRA	698	275373	452613	23014	0.0508469708117089
SEEDGWAS1200	1460.17346193	14.638033	-87.02708	Central America	NA	FRANCISCO MORAZAN	SAN IGNACIO	717	431754	296232	8217	0.0277383942315482
SEEDGWAS1204	1182.32046752	14.348233	-89.870508	Central America	NA	JUTIAPA	EL PROGRESO	1042	324397	403589	15813	0.0391809489356747
SEEDGWAS1205	1159.57355545	14.902827	-89.880527	Central America	NA	EL PROGRESO	ESPIRITU SANTO	313	323920	404066	14173	0.0350759529383814
SEEDGWAS1206	1190.56198435	14.9483	-89.55933	Central America	NA	ZACAPA	LA FRAGUA	276	296034	431952	19148	0.044328999518465
SEEDGWAS1207	1204.42471173	15.115625	-89.367104	Central America	NA	ZACAPA	FINCA OAXACA GUALAN	137	362735	365251	13209	0.0361641720351211
SEEDGWAS1208	1210.59341553	14.762413	-89.428169	Central America	NA	CHIQUIMULA	SAN JUAN LA HERMITA	627	391380	336606	11151	0.0331277517334807
SEEDGWAS1209	1090.61777747	14.713922	-90.637606	Central America	NA	SACATEPEQUEZ	SANTA ROSA SAN JUAN	1839	244336	483650	21900	0.0452806781763672
SEEDGWAS121	413.172320237	21.5667	-98.8167	Mexico	NA		TAMPAMOLON	104	335240	392746	13483	0.034330075926935
SEEDGWAS1210	1196.92953447	14.908968	-89.510475	Central America	NA		EL CAJON SANTA LUCIA	309	320772	407214	15565	0.0382231455696513
SEEDGWAS1211	1149.55834194	14.94666	-89.963493	Central America	NA	EL PROGRESO	FINCA EL PALMO ACASAGUASTLAN	294	308117	419869	15542	0.0370163074673291
SEEDGWAS1212	1166.34889393	14.940676	-89.800183	Central America	NA	ZACAPA	CABANAS	225	398182	329804	8544	0.0259062958605717
SEEDGWAS1214	3573.25077066	18.08333333	-66.36666667	Central America	NA		COAMO	230	383544	344442	9360	0.0271743863988712
SEEDGWAS1215	1160.737393	15.1	-89.8	Central America	NA	ZACAPA	LAS VEGAS GUALAN	1200	270992	456994	20973	0.0458933815323615
SEEDGWAS1216	1205.02980331	14.95	-89.41666667	Central America	NA	ZACAPA	LAS CARRETAS	966	372560	355426	11470	0.0322711337943763
SEEDGWAS122	384.91462515	21.26317	-98.746052	Mexico	NA	TAMAZUNCHALE	RANCHERIA EL SOL	154	311927	416059	16551	0.039780415758342
SEEDGWAS1220	2508.75003044	20.38333333	-76.43333333	Central America	NA	ORIENTE	CUPALCITO JIGUANI	107	327237	400749	14790	0.0369058937140205
SEEDGWAS123	446.817156841	21.951043	-99.015491	Mexico	NA	CIUDAD VALLES	SAN FELIPE	82	398626	329360	11485	0.0348706582462958
SEEDGWAS1236	4111.38516351	16.389094	-61.475936	Central America	NA		PETIT CANAL	22	394468	333518	10097	0.030274228077645
SEEDGWAS124	1164.71064346	20.734106	-89.484052	Mexico	NA		TECOH	14	410561	317425	8472	0.0266897692368276
SEEDGWAS1241	2898.55139366	19.544	-72.699224	Central America	NA	GONAIVES	BASSIN	194	315606	412380	14376	0.0348610504874145
SEEDGWAS1242	3595.33596015	18.061361	-66.158868	Central America	NA	CAYEY	LA VEREDA JAJOME	318	303203	424783	14489	0.0341091804521367
SEEDGWAS1244	3570.07113423	18.059362	-66.399305	Central America	NA	COAMO	LOS LLANOS	160	290672	437314	16766	0.0383385850898896
SEEDGWAS1246	3637.87123361	18.190513	-65.741368	Central America	NA	NAGUABO	ARENAS BLANCAS	1	366728	361258	11982	0.0331674315862901
SEEDGWAS1247	4210.20180082	13.232037	-61.148187	Central America	NA	CHARLOTTE	CEDARS	221	349219	378767	9898	0.0261321604046815
SEEDGWAS1248	4318.8217589	11.217382	-60.624146	Central America	NA		PEMBROKE	127	397692	330294	9741	0.0294919072099402
SEEDGWAS1249	4068.92090968	17.048578	-61.781557	Central America	NA	ST. PAUL	VALLE VUE	40	346094	381892	11508	0.0301341740596818
SEEDGWAS125	1164.72731824	20.734108	-89.483888	Mexico	NA		TECOH	14	359026	368960	14999	0.0406521032090199
SEEDGWAS1250	4380.94858769	13.15	-59.55	Central America	NA		ST. GEORGE PARISH	212	308648	419338	13655	0.0325632306158755
SEEDGWAS1254	662.56152151	21.847885	-105.177805	Mexico	NA	SANTIAGO IXCUINTLA	OJO DE AGUA	19	265409	462577	23282	0.0503310800147867
SEEDGWAS1256	896.499873243	15.984309	-92.0992225	Mexico	NA		COLONIA ALTAMIRA	698	358161	369825	6980	0.0188737916582167
SEEDGWAS1257	1197.04820177	14.71581	-89.579005	Central America	NA	CHIQUIMULA	LA QUEBRADA	493	293808	434178	18948	0.0436410872959938
SEEDGWAS1258	1185.1944911	14.657373	-89.718358	Central America	NA	JALAPA	PANSUMA JILOTEPEQUE	785	323722	404264	16058	0.0397215680842222
SEEDGWAS1259	1205.26554156	14.620613	-89.533421	Central America	NA	CHIQUIMULA	CRUZ DE VILLEDA IPALA	1157	352629	375357	13025	0.0347002986490195
SEEDGWAS1260	1070.86812416	14.786779	-90.805464	Central America	NA	CHIMALTENANGO	CANTON PATSAY SAN MARTIN JILOTEPEQUE	1764	293419	434567	21133	0.0486300156247483
SEEDGWAS1261	1054.11553241	14.383333	-91.15	Central America	NA	SUCHITEPEQUEZ	LA PRIMAVERA	296	274585	453401	20421	0.0450396007066592
SEEDGWAS1263	389.207657332	21.15	-98.416667	Mexico	NA	HUEJUTLA DE REYES	COAMILA	158	290809	437177	17981	0.0411297941108521
SEEDGWAS1264	893.982548405	15.7	-92.21666667	Mexico	NA		COMALAPA	736	335998	391988	13473	0.0343709501311265
SEEDGWAS1265	775.284344002	16.61666667	-93.1	Mexico	NA		FINCA Central America	440	353213	374773	11704	0.0312295709669587
SEEDGWAS1266	724.402018962	22.4	-105.4666667	Mexico	NA		EJIDO TECUALA	13	327622	400364	15572	0.0388946059086232
SEEDGWAS1267	978.886654104	26.888903	-99.614777	Mexico	NA	GUERRERO	SANTA ANITA	110	297503	430483	16924	0.0393139798784156
SEEDGWAS1268	362.114112979	18.85	-96.9	Mexico	NA		AMATLAN DE LOS REYES	731	269609	458377	19136	0.0417472953485886
SEEDGWAS1269	2454.65827589	20.3	-76.95	Central America	NA	ORIENTE	YARA	23	313787	414199	13646	0.03294551652708
SEEDGWAS127	2555.24348721	20.25	-75.98333333	Central America	NA	ORIENTE	PALMA SORIANO	118	399825	328161	11454	0.0349035991479792
SEEDGWAS1270	2460.5919439	20.333221	-76.894138	Central America	NA	ORIENTE	VEGUITAS	25	309098	418888	15468	0.0369263383052272
SEEDGWAS1271	2542.57658714	20.61666667	-76.11666667	Central America	NA	ORIENTE	GERMAN	124	385006	342980	11174	0.0325791591346434
SEEDGWAS1272	2419.1288492	21.08333333	-77.33333333	Central America	NA	CAMAGUEY	GUAIMARO	86	271669	456317	19937	0.0436911182357878
SEEDGWAS1274	2508.75003044	20.38333333	-76.43333333	Central America	NA	ORIENTE	JIGUANI	107	283062	444924	19092	0.0429106993553955
SEEDGWAS1277	2454.65827589	20.3	-76.95	Central America	NA	ORIENTE	YARA	23	250920	477066	23003	0.048217647034163
SEEDGWAS1278	2494.10930835	21.2	-76.61666667	Central America	NA	ORIENTE	PUERTO PADRE	11	344745	383241	12748	0.0332636643782894
SEEDGWAS1279	2454.65827589	20.3	-76.95	Central America	NA	ORIENTE	YARA	23	273272	454714	18314	0.0402758657089951
SEEDGWAS128	2460.5504876	21.002852	-76.927588	Central America	NA	ORIENTE	VILLA DE LAS TUNAS	95	325151	402835	16062	0.0398724043342808
SEEDGWAS1281	2399.79459378	21.25	-77.53333333	Central America	NA	CAMAGUEY	LAS MARIAS NEAR SIBANICU	88	367198	360788	15148	0.0419858753617083
SEEDGWAS1282	2530.12562667	20.9	-76.25	Central America	NA	ORIENTE	3 KILOMETROS AL NOROESTE DE HOLGUIN	150	415355	312631	9535	0.0304992147291855
SEEDGWAS1283	2583.06839443	20.676748	-75.729414	Central America	NA	ORIENTE	4 KILOMETROS AL OESTE DE MAYARI	20	265461	462525	17670	0.0382033403599805
SEEDGWAS1284	2531.05842306	20.3	-76.21666667	Central America	NA	ORIENTE	ALMACEN DE QUINONES CONTRAMAESTRE	102	321888	406098	15379	0.0378701692694867
SEEDGWAS1285	4174.67288541	14.739362	-61.165426	Central America	NA		NEAR ST. PIERRE	232	291177	436809	13647	0.0312424881355467
SEEDGWAS1287	3130.40669818	19.18333333	-70.5	Central America	NA	LA VEGA REAL	HATO VIEJO	196	331377	396609	11573	0.0291798723679997
SEEDGWAS1289	4197.93339088	13.23247	-61.264283	Central America	NA	ST. PATRICK	BARROUALLIE	131	334424	393562	11191	0.0284351639640006
SEEDGWAS129	1967.06218442	22.83	-82.02	Central America	NA	HABANA	MAICERA GUINES	59	367875	360111	12246	0.0340061814273932
SEEDGWAS1293	665.912703728	24.015674	-99.223726	Mexico	NA	VILLA HIDALGO	LA PIRAHUA	227	276948	451038	20864	0.0462577432500144
SEEDGWAS1294	1625.46682113	12.994002	-86.006718	Central America	NA	MATAGALPA	UMURE	915	273156	454830	16676	0.0366642481806389
SEEDGWAS1295	1197.06105034	13.735749	-89.997599	Central America	NA		CANTON TLALPETATE	71	340100	387886	13300	0.0342884249495986
SEEDGWAS13	421.187650918	20.474435	-97.113749	Mexico	NA	GUTIERREZ ZAMORA	DESVIACION PESO DE BARRILES	31	390985	337001	8999	0.0267031848570182
SEEDGWAS130	2077.18972742	22.38333333	-80.83333333	Central America	NA	LAS VILLAS	AGUADA DE PASAJEROS	27	380960	347026	12280	0.0353863975609897
SEEDGWAS1302	3102.14022928	8.444639	-73.280557	Central America	NA	SANTANDER DEL NORTE	TEORAMA	1039	274390	453596	15386	0.0339200522050459
SEEDGWAS1303	445.980621737	21.320028	-97.699529	Mexico	NA		HACIENDA POTRERO DEL LLANO	97	312770	415216	18565	0.0447116681438095
SEEDGWAS1304	2083.17587818	9.783843	-82.910317	Central America	NA	PUERTO LIMON	PENHURST LINEA ESTRELLA	6	254998	472988	23343	0.049352203438565
SEEDGWAS1305	1917.56778232	10.44895	-84.265743	Central America	NA	ALAJUELA	PITAL SAN CARLOS	177	306752	421234	18132	0.043044958384176
SEEDGWAS1306	2093.78973696	9.54934	-82.929368	Central America	NA	LIMON	SAN JUAN BOCA DE UREN PUERTO VIEJO	60	287466	440520	20335	0.0461613547625533
SEEDGWAS1307	2093.55101729	9	-83.25	Central America	NA	PUNTARENAS	UJARRAS BUENOS AIRES	219	421079	306907	8911	0.0290348542066489
SEEDGWAS1308	1901.63316885	10.36278788	-84.478768	Central America	NA	ALAJUELA	FLORENCIA SAN CARLOS	211	382681	345305	12130	0.0351283647789635
SEEDGWAS1309	1899.03564255	10.403208	-84.483438	Central America	NA	ALAJUELA	QUEBRADA AZUL SAN CARLOS	81	408745	319241	10044	0.0314621242258983
SEEDGWAS131	2010.7556449	22.755449	-81.567365	Central America	NA	MATANZAS	ALACRANES	24	399532	328454	9485	0.0288777119474873
SEEDGWAS1310	1917.52129239	10.447642	-84.266936	Central America	NA	ALAJUELA	PITAL SAN CARLOS	174	302810	425176	18752	0.044104088659755
SEEDGWAS1311	1822.93633591	10.883452	-85.012096	Central America	NA	ALAJUELA	UPALA	62	379247	348739	10861	0.0311436346379384
SEEDGWAS1312	1823.06381618	10.885181	-85.009845	Central America	NA	ALAJUELA	UPALA	50	305106	422880	18467	0.0436695989405978
SEEDGWAS1313	1820.97223143	10.91985	-85.012907	Central America	NA	ALAJUELA	MONTECRISTO DE UPALA	45	301692	426294	17609	0.0413071729839031
SEEDGWAS1316	1798.56727069	10.27709	-85.612105	Central America	NA	GUANACASTE	ARADO BARRIO SANTA CRUZ	56	376699	351287	10786	0.0307042389840785
SEEDGWAS1317	1852.58424591	10.432058	-84.952374	Central America	NA	GUANACASTE	QUEBRADA AZUL TILARAN	696	425411	302575	9260	0.0306039824836817
SEEDGWAS132	2159.39014231	22.25	-80	Central America	NA	LAS VILLAS	CENTRAL CARMITA	171	343541	384445	13550	0.0352456138069165
SEEDGWAS1320	1858.71169508	10.28643	-84.971238	Central America	NA	GUANACASTE	LAS JUNTAS ABANGARES PALMAS	158	359189	368797	12101	0.0328120890354314
SEEDGWAS1321	1847.22622787	10.350013	-85.055372	Central America	NA	GUANACASTE	HIGUERON CANAS	77	347814	380172	9911	0.026069778942163
SEEDGWAS1322	1813.02141909	10.672685	-85.230851	Central America	NA	GUANACASTE	MIRAVALLES BAGACES	446	311797	416189	16938	0.0406978560221438
SEEDGWAS1323	1748.72403627	11.214891	-85.603295	Central America	NA	GUANACASTE	COLPACHI PENAS BLANCAS	55	301844	426142	17990	0.0422159749567046
SEEDGWAS1324	1820.66686542	10.191279	-85.428923	Central America	NA	GUANACASTE	SAN ANTONIO NICOYA	70	345553	382433	13513	0.0353342938501646
SEEDGWAS1325	1826.53585755	10.031467	-85.463114	Central America	NA	GUANACASTE	SAN JUAN DE NICOYA	238	327304	400682	13824	0.0345011754957797
SEEDGWAS1326	1826.66925459	10.032973	-85.460772	Central America	NA	GUANACASTE	SAN JUAN DE NICOYA	196	306385	421601	16182	0.0383822619016558
SEEDGWAS1327	1826.53585755	10.031467	-85.463114	Central America	NA	GUANACASTE	SAN JUAN DE NICOYA	238	399317	328669	9774	0.0297381255914005
SEEDGWAS1329	2077.83935521	9.188017	-83.304159	Central America	NA	PUNTARENAS	SALITRE BUENOS AIRES	516	279052	448934	20673	0.0460490851661937
SEEDGWAS133	1785.55939095	22.41666667	-83.73333333	Central America	NA		PINAR DEL RIO MARKET	79	413011	314975	7998	0.0253924914675768
SEEDGWAS1330	2115.90096093	8.521084	-83.30636	Central America	NA	PUNTARENAS	RIO NUEVO PUERTO JIMENEZ	10	344472	383514	15383	0.0401106608885204
SEEDGWAS1332	1821.94726277	10.151686	-85.439086	Central America	NA	GUANACASTE	LOS ANGELES DE NICOYA	120	297408	430578	16167	0.0375472039909145
SEEDGWAS1333	1817.68237748	10.112727	-85.507987	Central America	NA	GUANACASTE	QUIRIMAN NICOYA	200	273728	454258	20764	0.0457097068185921
SEEDGWAS1334	1816.31522196	10.188492	-85.476791	Central America	NA	GUANACASTE	SABANA GRANDE NICOYA	157	269027	458959	23668	0.0515688765227395
SEEDGWAS1335	1240.82758884	13.753858	-89.54248	Central America	NA		HACIENDA SUNZA SONSONATE	616	269113	458873	24226	0.0527945640732839
SEEDGWAS1336	1240.82758884	13.753858	-89.54248	Central America	NA		HACIENDA SUNZA SONSONATE	616	282312	445674	22454	0.0503821178709101
SEEDGWAS1337	1240.82758884	13.753858	-89.54248	Central America	NA		HACIENDA SUNZA SONSONATE	616	300415	427571	19431	0.0454450839743575
SEEDGWAS1338	1213.29687618	13.66216	-89.867062	Central America	NA		COLONIA METALIO	34	303283	424703	20735	0.0488223535035072
SEEDGWAS134	2530.12562667	20.9	-76.25	Central America	NA	ORIENTE	PEDERNAL HOLGUIN	150	381487	346499	12156	0.0350823523300212
SEEDGWAS1340	1327.64273594	13.448614	-88.802349	Central America	NA	SAN VICENTE	SANTA CRUZ PARILLO	40	311560	416426	17267	0.0414647500396229
SEEDGWAS1342	1367.61459314	13.330803	-88.451302	Central America	NA	USULUTAN	CATUCO LA UNION	76	320574	407412	19794	0.0485847250449177
SEEDGWAS1344	1265.49663292	14.009348	-89.179417	Central America	NA	SAN SALVADOR	HACIENDA LA CABANA TOMA DE AGUILARES	270	372875	355111	11706	0.0329643407272656
SEEDGWAS1346	1231.14456372	14.045156	-89.509358	Central America	NA	SANTA ANA	CANTON CUCUMAY	564	353618	374368	16717	0.0446539234122575
SEEDGWAS1347	1233.58196931	14.09389	-89.46379	Central America	NA	SANTA ANA	SAN JACINTO TEXISTEPEQUE	338	337992	389994	17710	0.045410955040334
SEEDGWAS1348	1358.58567883	13.561555	-88.437896	Central America	NA	FRANCISCO MORAZAN	CANTON EL TRIUNFO	479	311046	416940	18944	0.0454357941190579
SEEDGWAS1349	1358.58567883	13.561555	-88.437896	Central America	NA	FRANCISCO MORAZAN	CANTON EL TRIUNFO	479	329286	398700	18865	0.0473162779031853
SEEDGWAS135	2515.40972576	20.73333333	-76.38333333	Central America	NA	ORIENTE	LIMPIO CHIQUITO CACOCUM	62	445760	282226	8478	0.0300397553733533
SEEDGWAS1350	1504.99103768	13.173019	-87.135874	Central America	NA	NAMASIGUE	SAN JERONIMO	39	328833	399153	17180	0.0430411396131308
SEEDGWAS1351	1342.66123536	15.590506	-87.891039	Central America	NA	CORTES	ALDEA MONTERREY	16	346909	381077	15729	0.0412751228754294
SEEDGWAS1352	1342.66123536	15.590506	-87.891039	Central America	NA	CORTES	ALDEA MONTERREY	16	344517	383469	16190	0.0422198404564645
SEEDGWAS1353	1334.81887928	15.4	-88.016667	Central America	NA	CORTES	CHAMELECON	92	303211	424775	20118	0.0473615443470072
SEEDGWAS1355	1553.55155629	14.744943	-86.088789	Central America	NA	OLANCHO	JUTIQUILE	415	292661	435325	21737	0.0499328088209958
SEEDGWAS1356	1567.78095328	14.793053	-85.937304	Central America	NA	OLANCHO	SANTA MARIA DEL REAL	347	405607	322379	11738	0.0364105602412068
SEEDGWAS1357	1344.41784853	15.380512	-87.929345	Central America	NA	CORTES	SABANA DEL PUENTE	60	342994	384992	17051	0.0442892319840412
SEEDGWAS1358	1347.52305486	15.053429	-87.99316	Central America	NA	CORTES	RIO LINDO	134	288201	439785	21328	0.0484964243891902
SEEDGWAS1359	1347.52305486	15.053429	-87.99316	Central America	NA	CORTES	RIO LINDO	131	367913	360073	12687	0.035234521888617
SEEDGWAS136	4185.59411908	12.2	-61.63	Central America	NA		ST. PATRICK	63	323168	404818	18247	0.045074576723367
SEEDGWAS1360	1339.57034166	15.281744	-88.003548	Central America	NA	CORTES	EL AGUACATE	48	365508	362478	16045	0.0442647553782574
SEEDGWAS1361	2338.15656862	8.133333333	-81.18333333	Central America	NA	VERAGUAS	BISVALLES LA MESA	105	349850	378136	17385	0.0459755220344003
SEEDGWAS1362	2331.67458383	8.187298	-81.219826	Central America	NA	VERAGUAS	LLANO DE LA CRUZ BISVALLES LA MESA	79	383434	344552	12738	0.03696974622118
SEEDGWAS1363	2382.53942936	8.176827	-80.692968	Central America	NA	COCLE	EL JAGUITO EL ROBLE AGUA DULCE	54	331103	396883	15157	0.0381900963256174
SEEDGWAS1364	2389.85179969	8.327238	-80.531579	Central America	NA	COCLE	NATA AGUA DULCE	13	382894	345092	14907	0.0431971764051325
SEEDGWAS1365	2167.57279639	8.583333333	-82.71666667	Central America	NA	CHIRIQUI	SALITRAL SAN ANDRES	439	288784	439202	21995	0.0500794622975305
SEEDGWAS1366	2402.30049599	8.061959	-80.552275	Central America	NA	HERRERA	COLONIA DE PARIS PARITA	10	306695	421291	19439	0.046141503141534
SEEDGWAS1367	2414.13543733	7.966666667	-80.48333333	Central America	NA	HERRERA	VISTA ALEGRE LA ARENA	26	347559	380427	15923	0.0418555991031131
SEEDGWAS1368	2486.60691002	9.166666667	-79.1	Central America	NA	Central America	MAJE CHEPO	22	369413	358573	14668	0.0409065936364422
SEEDGWAS1369	2496.29101142	9.215315	-78.978395	Central America	NA	Central America	EL LLANO CHEPO	78	359122	368864	14852	0.0402641624013186
SEEDGWAS137	2738.142746	18.563505	-74.267982	Central America	NA		PETIT-ANGEL-MORON	154	479459	248527	5195	0.0209031614271286
SEEDGWAS1370	2411.81728096	8.566825	-80.172251	Central America	NA	Central America	EL HARINO SAN CARLOS	452	362381	365605	14655	0.040084243924454
SEEDGWAS1371	2411.87907787	8.40745	-80.258465	Central America	NA	COCLE	EL VALLE DE ANTON	29	403755	324231	11970	0.0369181231899479
SEEDGWAS1372	2411.87907787	8.40745	-80.258465	Central America	NA	COCLE	EL VALLE DE ANTON	29	365844	362142	14716	0.040635993615764
SEEDGWAS1373	2457.98839176	20.96666667	-76.95	Central America	NA	VICTORIA DE LAS TUNAS	ARROYO MUERTO	89	314332	413654	17973	0.0434493562252511
SEEDGWAS1374	2508.75003044	20.38333333	-76.43333333	Central America	NA	ORIENTE	FINCA LA VICTORIA JIGUANI	107	470017	257969	7669	0.0297283782159872
SEEDGWAS1375	2531.05842306	20.3	-76.21666667	Central America	NA	ORIENTE	BLANQUIZAL CONTRAMAESTRE	102	239137	488849	27291	0.0558270549801677
SEEDGWAS1376	2531.05842306	20.3	-76.21666667	Central America	NA	ORIENTE	ALMACEN DE QUINONES CONTRAMAESTRE	102	335984	392002	16233	0.0414105030076377
SEEDGWAS1377	4125.70719592	16.319743	-61.350975	Central America	NA		MOULE	20	291684	436302	17576	0.0402840234516459
SEEDGWAS1378	4113.56139598	16.214784	-61.482804	Central America	NA		GOSIER	8	260620	467366	22572	0.0482961961289439
SEEDGWAS1379	4088.82260677	16.320169	-61.700681	Central America	NA		SAINTE ROSE	58	315037	412949	16482	0.039912919028742
SEEDGWAS1380	4102.36097449	16.262387	-61.581424	Central America	NA		BAIE MAHAULT	21	351990	375996	15118	0.0402078745518569
SEEDGWAS1381	2936.16256184	19.507351	-72.341009	Central America	NA	L'ARTIGOMITE	MARMELADE	938	265498	462488	23361	0.0505115808410164
SEEDGWAS1383	2789.22566667	18.286044	-73.800134	Central America	NA	PLAN-DES-CALLES	LA BORDE	83	355884	372102	13896	0.0373445990615476
SEEDGWAS1386	3579.26415839	18.18164	-66.299774	Central America	NA		BARRANQUITAS	572	307065	420921	20049	0.0476312657244471
SEEDGWAS1387	3637.87123361	18.190513	-65.741368	Central America	NA	NAGUABO	ARENAS BLANCAS	1	380605	347381	16085	0.0463036262777757
SEEDGWAS1388	3130.40669818	19.18333333	-70.5	Central America	NA	LA VEGA	FINCA MATECENIZA	196	361081	366905	13250	0.0361128902576961
SEEDGWAS1389	3180.54577928	19.197019	-70.021015	Central America	NA	DUARTE	CASTILLO 39 KILOMETROS SUROESTE DE NAGUA	65	225173	502813	26015	0.0517389168537806
SEEDGWAS139	407.618009433	21.544818	-98.905924	Mexico	NA		COXCATLAN	182	353326	374660	14640	0.0390754283884055
SEEDGWAS1390	3140.52003428	19.677604	-70.382798	Central America	NA	PUERTO PLATA	SABANETA DE YASICA	10	232000	495986	26275	0.0529752855927385
SEEDGWAS1391	3130.76581093	19.354584	-70.488525	Central America	NA	ESPAI	VEREDA HATO VIEJO CAYETANO GERMOCEN	157	255837	472149	24577	0.0520534831165585
SEEDGWAS1392	3130.40669818	19.18333333	-70.5	Central America	NA	LA VEGA	CARRERA DE LAS PALMAS	196	369594	358392	13433	0.0374813053862809
SEEDGWAS1393	4200.85053207	13.176096	-61.249598	Central America	NA	ST. ANDREW	CAMDEN PARK EXPERIMENTAL STATION	103	415059	312927	10416	0.0332857183943859
SEEDGWAS1394	4204.1969069	13.161853	-61.221184	Central America	NA	ST. GEORGE	CA. KINGSTOWN	89	341043	386943	14438	0.0373129892516469
SEEDGWAS1395	4254.1820725	10.642774	-61.399664	Central America	NA	ST. AGUSTINE	CA. IMPERIAL COLLEGE OF AGRICULTURE	24	349155	378831	13924	0.036755175790788
SEEDGWAS14	432.028151361	19.344444	-96.354444	Mexico	NA	LA ANTIGUA	SALMORAL	13	411522	316464	9281	0.0293271904545225
SEEDGWAS1400	4245.81247902	10.71	-61.46	Central America	NA	SANTA CRUZ	LA PASTORA	100	336925	391061	15585	0.0398531175443217
SEEDGWAS1401	4271.05437815	10.548746	-61.26624	Central America	NA	CARONI	South America	23	310856	417130	17223	0.0412892863136193
SEEDGWAS1402	4274.26812236	10.502186	-61.249153	Central America	NA	ST. ANDREW	TAMANA	52	369268	358718	12839	0.0357913458482708
SEEDGWAS1403	4274.26812236	10.502186	-61.249153	Central America	NA	ST. ANDREW	TAMANA	52	370985	357001	14148	0.0396301410920418
SEEDGWAS1404	4274.26812236	10.502186	-61.249153	Central America	NA	ST. ANDREW	TAMANA	52	371247	356739	9337	0.0261731966507727
SEEDGWAS1407	7312.26505329	-23.11666667	-47.71666667	South America	NA	SAO PAULO	TIETE	505	363986	364000	10871	0.0298653846153846
SEEDGWAS1408	7415.56651063	-26.495538	-49.094245	South America	NA	SANTA CATARINA	JARAGUA	53	364948	363038	13178	0.0362992303835962
SEEDGWAS1409	7532.00103758	-28.93333333	-49.68333333	South America	NA	SANTA CATARINA	TURVO	26	369956	358030	14817	0.0413848001564115
SEEDGWAS141	396.443994088	20.43027778	-97.382222	Mexico	NA	PAPANTLA DE OLARTE	EL TAJIN	109	354816	373170	11005	0.029490580700485
SEEDGWAS1410	7548.56361265	-28.920044	-49.457185	South America	NA	SANTA CATARINA	ARARANGUA	9	361676	366310	11148	0.0304332396057984
SEEDGWAS1411	7042.46360881	-21.070066	-49.381378	South America	NA	SAO PAULO	POTIRENDABA	505	376277	351709	13973	0.0397288667620106
SEEDGWAS1412	7282.50617614	-22.43333333	-47.56666667	South America	NA	SAO PAULO	RIO CLARO	601	350044	377942	12282	0.0324970498118759
SEEDGWAS1413	7055.79668902	-20.96666667	-49.15	South America	NA	SAO PAULO	UCHOA	495	322545	405441	18182	0.0448449959426896
SEEDGWAS1414	7257.44627411	-22.537739	-47.937215	South America	NA	SAO PAULO	SAO PEDRO	632	350442	377544	15821	0.0419050494776768
SEEDGWAS1415	7112.48936667	-20.93333333	-48.46666667	South America	NA	SAO PAULO	BEBEDOURO	556	349369	378617	15794	0.0417149784610834
SEEDGWAS1416	7343.84238231	-22.437301	-46.852271	South America	NA	SAO PAULO	ITAPIRA	660	441860	286126	10834	0.0378644373457847
SEEDGWAS1417	7061.60857845	-20.756582	-48.92991	South America	NA	SAO PAULO	OLIMPIA	529	365285	362701	14537	0.0400798453822846
SEEDGWAS1418	6965.02251696	-21.78333333	-50.83333333	South America	NA	SAO PAULO	OSWALDO CRUZ	455	409760	318226	10511	0.0330299849792286
SEEDGWAS142	424.985796841	20.547635	-97.129731	Mexico	NA	TECOLUTLA	BOCA DE LIMA	12	363789	364197	12135	0.0333198790764339
SEEDGWAS1421	7312.26505329	-23.11666667	-47.71666667	South America	NA	SAO PAULO	TIETE	505	413476	314510	10411	0.0331022860958316
SEEDGWAS1422	7060.16059173	-22.437175	-50.202062	South America	NA	SAO PAULO	ECHAPORA	687	337682	390304	17818	0.0456515946544232
SEEDGWAS1424	7228.22770523	-22.01666667	-47.9	South America	NA	SAO PAULO	SAO CARLOS	826	380989	346997	10119	0.0291616354031879
SEEDGWAS1427	5648.58983036	-9.151427	-56.771095	South America	NA	MATO GROSSO	TELES PIRES	183	342880	385106	14157	0.0367613072764382
SEEDGWAS1428	7521.60744659	-12.651497	-39.1086	South America	NA	BAHIA	CRUZ DAS ALMAS	201	318147	409839	19841	0.0484116933722755
SEEDGWAS1429	941.253876033	14.857059	-92.081027	Central America	NA	SAN MARCOS	PUEBLO NUEVO CATARINA	233	485106	242880	6515	0.0268239459815547
SEEDGWAS143	1164.29994647	19.841513	-89.31613	Mexico	NA		BECANCHEN	72	402475	325511	11121	0.0341647440485882
SEEDGWAS1430	1035.50991704	14.418766	-91.3232	Central America	NA	SUCHITEPEQUEZ	LA COLONIA RIO BRAVO	185	365881	362105	12569	0.0347109263887546
SEEDGWAS1431	1096.32157546	14.28333333	-90.76666667	Central America	NA	ESCUINTLA	FINCA MONTE DE ORO(LA DEMOCRACIA)	284	372883	355103	16105	0.0453530384142066
SEEDGWAS1432	1149.55834194	14.94666	-89.963493	Central America	NA	EL PROGRESO	FINCA EL PALMO ACASAGUASTLAN	294	387528	340458	13474	0.0395761004294215
SEEDGWAS1434	1197.4715777	14.78333333	-89.55	Central America	NA	CHIQUIMULA	EL CALVARIO IPALA	423	303077	424909	16800	0.0395378775220106
SEEDGWAS1435	1091.13997008	15.092398	-90.487282	Central America	NA	BAJA VERAPAZ	CHISALVADOR RABINAL	963	336191	391795	16778	0.0428234153064741
SEEDGWAS1436	1214.6662168	14.624426	-89.438894	Central America	NA	CHIQUIMULA	BUENAVISTA QUEZALTEPEQUE	650	333130	394856	16375	0.0414708146767429
SEEDGWAS1437	1226.93179747	15.266667	-89.1	Central America	NA	IZABAL	LOS AMATES	92	259575	468411	26269	0.0560810911784736
SEEDGWAS1438	1097.94948303	14.279885	-90.751703	Central America	NA	ESCUINTLA	LOS ENCUENTROS	256	351243	376743	15015	0.0398547550983031
SEEDGWAS1439	1096.32157546	14.28333333	-90.76666667	Central America	NA	ESCUINTLA	HACIENDA SAN VICTOR	284	363391	364595	13786	0.0378118185932336
SEEDGWAS144	7240.85978085	-24.11666667	-49.33333333	South America	NA	SAO PAULO	FAZ. ISA ITARRARE	735	366406	361580	11678	0.032297140328558
SEEDGWAS1440	1096.32157546	14.28333333	-90.76666667	Central America	NA	ESCUINTLA	EL DULCE NOMBRE	284	365854	362132	14865	0.0410485679255078
SEEDGWAS1441	1094.24958641	14.112458	-90.868418	Central America	NA	ESCUINTLA	LA BUELTA DE LOS RAMIREZ CUYUTA	50	299539	428447	14493	0.0338268210537126
SEEDGWAS1442	2709.99285117	20.33333333	-74.5	Central America	NA	ORIENTE	BARACOA MERCADO	51	357871	370115	13377	0.0361428204747173
SEEDGWAS1443	2508.75003044	20.38333333	-76.43333333	Central America	NA	ORIENTE	JIGUANI	107	364712	363274	10168	0.0279898919273056
SEEDGWAS1457	7337.67320612	-22.45	-46.93333333	South America	NA	SAO PAULO	MOGI MIRIM	626	326981	401005	10944	0.0272914302814179
SEEDGWAS1458	7548.56361265	-28.920044	-49.457185	South America	NA	SANTA CATARINA	ARARANGUA	9	388741	339245	12229	0.03604769414435
SEEDGWAS1460	7129.36923249	-28.290932	-54.409057	South America	NA	RIO GRANDE DO SUL	BURITI	245	419947	308039	8620	0.0279834696255994
SEEDGWAS1463	355.452197924	16.11666667	-97.61666667	Mexico	NA		SAN PEDRO TUTUTEPEC	106	396193	331793	10807	0.0325715129613946
SEEDGWAS1464	305.646160947	16.343416	-98.026611	Mexico	NA	PINOTEPA NACIONAL	RANCHO VIEJO	187	315093	412893	16912	0.0409597643941651
SEEDGWAS1465	305.646160947	16.343416	-98.026611	Mexico	NA	PINOTEPA NACIONAL	RANCHO VIEJO	187	333397	394589	15479	0.0392281589197874
SEEDGWAS1466	282.84754471	16.539657	-98.136052	Mexico	NA	SAN SEBASTIAN IXCAPA	COSTATITLAN (EL LIMON)	221	442916	285070	7197	0.0252464307012313
SEEDGWAS1467	270.285118764	17.03333333	-97.95	Mexico	NA		SANTA MARIA PUTLA	778	335095	392891	15077	0.0383745109966886
SEEDGWAS1468	479.449993718	15.71666667	-96.48333333	Mexico	NA	PUERTO ANGEL	RANCHO PUENTE CRUZ	200	303026	424960	8235	0.0193782944277108
SEEDGWAS1469	491.838026622	15.78333333	-96.3	Mexico	NA	SAN ISIDRO APANGO	EL PALMAR	95	308661	419325	18236	0.0434889405592321
SEEDGWAS1470	7078.56685907	-22.232837	-49.825724	South America	NA	SAO PAULO	VERA CRUZ	625	388327	339659	11668	0.0343521001946069
SEEDGWAS1472	7047.99338883	-20.93333333	-49.21666667	South America	NA	SAO PAULO	UCHOA	547	320916	407070	17617	0.0432775689684821
SEEDGWAS1473	6946.66250103	-20.404622	-50.010906	South America	NA	SAO PAULO	VOTUPORANGA	494	335765	392221	12046	0.0307122770070955
SEEDGWAS1474	618.197866499	21.1	-105.2166667	Mexico	NA	PUERTA LA LIMA	RANCHO EL CHAMISAL	4	369626	358360	11235	0.0313511552628642
SEEDGWAS1476	618.197866499	21.1	-105.2166667	Mexico	NA	PUERTA LA LIMA	RANCHO EL CHAMISAL	4	312737	415249	17942	0.0432078102536069
SEEDGWAS1477	619.767545989	21.2	-105.1666667	Mexico	NA	LAS VARAS	RANCHO GOMEZ HERMANOS	8	366054	361932	13007	0.0359376899528088
SEEDGWAS1478	599.187988763	20.81666667	-105.1833333	Mexico	NA	VALLE DE BANDERAS	SAN JUAN DE ABAJO	31	412817	315169	10354	0.0328522157953352
SEEDGWAS1479	599.187988763	20.81666667	-105.1833333	Mexico	NA	VALLE DE BANDERAS	SAN JUAN DE ABAJO	31	442859	285127	8931	0.0313228841884494
SEEDGWAS148	7500.48801322	-12.43333333	-39.21666667	South America	NA	BAHIA	SANTO ESTEVAM	208	323284	404702	15165	0.0374720164466694
SEEDGWAS1481	600.154645663	21.232846	-104.915301	Mexico	NA	COMPOSTELA	EJIDO OTATES	843	419989	307997	9249	0.0300295132744799
SEEDGWAS1482	732.579886309	22.65	-105.3333333	Mexico	NA	EJIDO LA HIGUERA	HUAJICORI	131	346296	381690	14040	0.036783777410988
SEEDGWAS1483	732.579886309	22.65	-105.3333333	Mexico	NA	EJIDO LA HIGUERA	HUAJICORI	131	335802	392184	17195	0.0438442159802542
SEEDGWAS1484	732.579886309	22.65	-105.3333333	Mexico	NA	EJIDO LA HIGUERA	HUAJICORI	131	402550	325436	10847	0.0333306702393097
SEEDGWAS1485	870.511471132	23.365893	-106.44719	Mexico	NA	MUNICIPIO DE MAZATLAN	RANCHO NUEVO	45	378991	348995	9331	0.0267367727331337
SEEDGWAS1486	847.428961268	23.201203	-106.303401	Mexico	NA	MUNICIPIO DE MAZATLAN	PUERTO CANOAS	13	405969	322017	10399	0.0322933261287448
SEEDGWAS1487	1029.72518051	24.71666667	-107.2166667	Mexico	NA	MUNICIPIO DE CULIACAN	ALCOYONQUI	129	315894	412092	15706	0.0381128485872087
SEEDGWAS1488	1108.69364556	25.408895	-107.562256	Mexico	NA	MUNICIPIO BADIRAGUATO	SN JAVIER DE ABAJO	259	422820	305166	6854	0.0224599070669734
SEEDGWAS149	7658.17306104	-10.28333333	-36.6	South America	NA	ALAGOAS	MATO BRAVO CA. PENEDO	9	282763	445223	17020	0.038228034041368
SEEDGWAS1490	1264.42190299	26.421574	-108.639475	Mexico	NA	MUNICIPIO EL FUERTE	MAQUICOBA	75	287836	440150	15026	0.034138361922072
SEEDGWAS1492	1280.827758	26.63333333	-108.6333333	Mexico	NA	MUNICIPIO DE CHOIX	BUYOBAMPO	244	329498	398488	15361	0.0385482122422758
SEEDGWAS1493	1188.25186553	25.81666667	-108.2333333	Mexico	NA	MPIO. SINALOA DE LEYVA	LA ESTANCIA	62	285010	442976	24090	0.0543821787184859
SEEDGWAS1494	1033.39835188	24.97268	-106.983531	Mexico	NA	MUNICIPIO DE TAMAZULA	SAN JOSE DEL PALMAR	243	315195	412791	18450	0.0446957419129778
SEEDGWAS1495	1446.52544396	28.11666667	-109.3	Mexico	NA	MUNICIPIO TESOPACO	NURI	401	299731	428255	20921	0.0488517355314007
SEEDGWAS1496	1442.96761031	28.353628	-108.931234	Mexico	NA	MUNICIPIO YECORA	SAN ANTONIO DE LA CANADA	1546	355004	372982	12154	0.032586022917996
SEEDGWAS1497	7294.4045889	-22.71666667	-47.63333333	South America	NA	SAO PAULO	PIRACICABA	546	341548	386438	11557	0.0299064791764785
SEEDGWAS1498	7189.40424045	-22.625913	-48.806462	South America	NA	SAO PAULO	LENCOIS PAULISTA	611	401272	326714	10072	0.0308281861199704
SEEDGWAS15	431.311412493	20.998948	-97.505195	Mexico	NA	TIHUATLAN	PAPATLARILLOS ZAPOTALILLO	51	357819	370167	13105	0.035402939754219
SEEDGWAS150	7441.89758837	-6.996793	-37.295403	South America	NA	PARAIBA	POEIRA VERMELHA CA. PATOS	257	306946	421040	19922	0.0473161694850846
SEEDGWAS1500	7228.22770523	-22.01666667	-47.9	South America	NA	SAO PAULO	SAO CARLOS	826	410242	317744	8544	0.0268895714789264
SEEDGWAS1501	7048.81604013	-21.66666667	-49.75	South America	NA	SAO PAULO	LINS	443	369666	358320	13247	0.0369697477115428
SEEDGWAS1503	6984.72417239	-21.350258	-50.268661	South America	NA	SAO PAULO	COROADOS	404	320630	407356	15599	0.0382932864619645
SEEDGWAS1506	1197.42913629	14.885899	-89.513671	Central America	NA	ZACAPA	PIE DE LA CUESTA	271	356705	371281	11700	0.0315125201666662
SEEDGWAS1507	1197.47158987	14.783333	-89.55	Central America	NA	CHIQUIMULA	EL RECUERDO	430	302899	425087	18771	0.0441580194172017
SEEDGWAS1508	7198.10679937	-22.084753	-48.302538	South America	NA	SAO PAULO	DOURADO	611	411644	316342	9194	0.029063481927787
SEEDGWAS1512	6380.69251116	-14.640556	-52.381079	South America	NA	MATO GROSSO	CHAVANTINA	303	366496	361490	10534	0.029140501811945
SEEDGWAS1513	3634.83904565	9.772503	-67.591402	Central America	NA		PARADERO	304	396058	331928	10925	0.0329137644308404
SEEDGWAS1516	3562.15939896	10.109421	-68.177883	Central America	NA		BARRERA ARRIBA	625	324869	403117	14438	0.0358159045636875
SEEDGWAS1517	3884.24913797	9.366825	-65.330006	Central America	NA		ZARAZA	65	343275	384711	12883	0.0334874750137116
SEEDGWAS1518	3212.80518304	7.827287	-72.453725	Central America	NA		SAN ANTONIO	401	367177	360809	10957	0.0303678677638307
SEEDGWAS1519	3884.24913797	9.366825	-65.330006	Central America	NA		ZARAZA	65	360276	367710	11965	0.0325392292839466
SEEDGWAS152	2919.63942324	8.316666667	-75.15	Central America	NA	CORDOBA	AYAPEL	30	364847	363139	12466	0.0343284527412368
SEEDGWAS153	2891.1980202	9.75	-74.81666667	Central America	NA	BOLIVAR	ZAMBRANO	13	470271	257715	7150	0.0277438255437208
SEEDGWAS1543	3767.03309104	10.374977	-66.127483	Central America	NA	MIRANDA	MAMPORAL	27	411536	316450	8846	0.027953863169537
SEEDGWAS1545	3386.6006223	8.267071	-70.556081	Central America	NA	BARINAS	MIJAGUAS (DTO PEDRAZA)	153	283809	444177	16151	0.0363616306112203
SEEDGWAS155	3203.11758946	7.617716	-72.643105	Central America	NA	SANTANDER DEL NORTE	BOCHALEMA	996	390107	337879	12123	0.0358797084163266
SEEDGWAS1550	3444.95676406	7.488302	-70.306586	Central America	NA	APURE	LA PUERTA	110	347182	380804	11280	0.0296215375888909
SEEDGWAS1551	3622.28438571	7.527035	-68.54864	Central America	NA	APURE	EL COROCITO	66	288593	439393	17175	0.0390880146019623
SEEDGWAS1552	863.564373796	15.332888	-92.659404	Mexico	NA		ESCUINTLA	93	376526	351460	11735	0.0333892903886644
SEEDGWAS1553	32.4881329114	18.23333333	-100.5166667	Mexico	NA	TLAPEHUALA	COLONIA BENITO JUAREZ	270	323327	404659	14823	0.0366308422647217
SEEDGWAS1554	591.831903649	23.3	-99.01666667	Mexico	NA		LLERA DE CANELAS	271	478168	249818	5366	0.021479637175864
SEEDGWAS1557	1332.91374343	15.8	-87.93333333	Central America	NA	CORTES	PUERTO CORTES	18	299851	428135	16088	0.0375769325096056
SEEDGWAS156	431.495751114	20.32	-96.87	Mexico	NA	TECOLUTLA	PLAYA PARAISO	5	411559	316427	9889	0.0312520739380647
SEEDGWAS1560	258.709395902	16.504784	-98.46634	Mexico	NA	CUAJINICUILAPA	BARAJILLA	28	375552	352434	12018	0.0341000017024464
SEEDGWAS1561	2423.2631759	7.916666667	-80.41666667	Central America	NA		LOS SANTOS	36	316727	411259	13464	0.0327384932609378
SEEDGWAS1564	5701.30185553	-17.82886	-62.994159	South America	NA	SANTA CRUZ	CABALLERO, TAMBO	370	358867	369119	13180	0.0357066420314316
SEEDGWAS1565	5606.89699002	-18.046032	-64.432761	South America	NA	SANTA CRUZ	CABALLERO, SAN ISIDRO	1573	363550	364436	12793	0.0351035572775467
SEEDGWAS1566	5968.53552412	-21.951237	-63.668474	South America	NA	TARIJA	GRAN CHACO,CAIZA	679	500589	227397	4357	0.0191603231353096
SEEDGWAS157	422.081291552	20.385828	-97.030722	Mexico	NA	TECOLUTLA	LA GUADALUPE	22	448263	279723	8090	0.0289214687387165
SEEDGWAS1572	3672.3290972	9.616666667	-67.28333333	Central America	NA	GUARICO	ORTIZ (DISTRITO MELLADO)	198	427341	300645	9068	0.0301618187563405
SEEDGWAS1573	4012.47696314	8.916666667	-64.25	Central America	NA	ANZOATEGUI	EL TIGRE (S. RODRIGUEZ)	282	362340	365646	13081	0.0357750392456091
SEEDGWAS1574	4012.47696314	8.916666667	-64.25	Central America	NA	ANZOATEGUI	EL TIGRE (S. RODRIGUEZ)	282	381560	346426	8994	0.0259622545651885
SEEDGWAS1577	3705.72147264	9.379051	-67.043056	Central America	NA	GUARICO	EL SOMBRERO	146	331148	396838	13126	0.033076469491329
SEEDGWAS1578	3634.42729116	10.176282	-67.461732	Central America	NA	ARAGUA	CAGUA	459	352017	375969	12245	0.0325691745862026
SEEDGWAS1579	3114.30193156	9.405125	-72.76796	Central America	NA	ZULIA	PERIJA	50	372467	355519	10516	0.0295792911208684
SEEDGWAS158	402.94175614	20.46666667	-97.33333333	Mexico	NA	PAPANTLA DE OLARTE	EL TRIUNFO	208	397976	330010	8779	0.026602224175025
SEEDGWAS1580	7069.59711531	-32.310879	-59.692253	South America	NA	ENTRE RIOS	COLONIA 21 CRUCECITA, NOGOYA	57	413460	314526	9532	0.0303059206552082
SEEDGWAS1581	6495.49246442	-30.377406	-66.303177	South America	NA	LA RIOJA	CHAMICAL, GDOR. GORDILLO	477	366021	361965	12640	0.0349205033635849
SEEDGWAS160	418.305406918	20.433609	-97.114806	Mexico	NA	GUTIERREZ ZAMORA	ANCLON Y ARENAL	14	281676	446310	20748	0.0464878671775224
SEEDGWAS1604	3743.35332808	17.737032	-64.786746	Central America	NA		MIDWAY BETWEEN CHRIST. AND FRED.,ST.CROIX ISL	32	456864	271122	5424	0.0200057538672627
SEEDGWAS1605	865.517787302	15.323565	-92.643647	Mexico	NA	ESCUINTLA	COLONIA HIDALGO SERCA SANTIAGO	204	379473	348513	9544	0.0273849182096507
SEEDGWAS1607	863.564373796	15.332888	-92.659404	Mexico	NA		ESCUINTLA	93	384235	343751	10641	0.030955546311138
SEEDGWAS1608	113.397077394	18.61666667	-99.31666667	Mexico	NA		PUENTE DE IXTLA	904	475108	252878	5916	0.0233946804387887
SEEDGWAS1609	155.445538487	18.98333333	-99.1	Mexico	NA		TEPOZTLAN	1713	328108	399878	17125	0.0428255617963479
SEEDGWAS1610	783.192327394	16.71666667	-93	Mexico	NA		CHIAPA DE CORZO	420	370821	357165	12855	0.0359917685103524
SEEDGWAS1611	4288.01027264	8.018782	-61.910948	Central America	NA	BOLIVAR	EL PALMAR (DTO. PIAR)	322	377746	350240	11215	0.032020899954317
SEEDGWAS162	406.074540251	20.511547	-97.334715	Mexico	NA	PAPANTLA DE OLARTE	BARRIO SAN JUAN,MANUEL AVILA CAMACHO	93	348673	379313	11717	0.0308900564968773
SEEDGWAS163	413.162319212	20.5422222	-97.27305556	Mexico	NA	PAPANTLA DE OLARTE	CRUZ VERDE	58	429591	298395	8740	0.029290035020694
SEEDGWAS1631	815.760511761	16.606885	-92.712153	Mexico	NA		ZAPOTAL	737	453043	274943	5914	0.0215099129637779
SEEDGWAS1632	52.9602688428	18.300591	-100.69796	Mexico	NA		COYUCA DE CATALAN	265	371631	356355	10976	0.0308007464466613
SEEDGWAS1633	249.526235443	19.08164	-102.373599	Mexico	NA		APATZINGAN	302	330029	397957	14274	0.0358681968152338
SEEDGWAS1634	672.744756435	21.95	-105.2166667	Mexico	NA		EJIDO LAS PENITAS	13	295498	432488	18570	0.042937607517434
SEEDGWAS1635	678.696013106	22.024349	-105.22623	Mexico	NA	ROSAMORADA	EJIDO CHILAPA	15	417927	310059	6780	0.021866805994988
SEEDGWAS1636	727.263227645	22.36666667	-105.5333333	Mexico	NA	TECUALA	EJIDO QUIMICHIS	6	302536	425450	18865	0.0443412856974968
SEEDGWAS1638	621.714471365	16.580327	-94.601906	Mexico	NA		NILTEPEC	79	328019	399967	13581	0.0339553013123583
SEEDGWAS1639	1422.73575086	20.51666667	-86.91666667	Mexico	NA		COZUMEL	8	334228	393758	15909	0.0404029886376912
SEEDGWAS164	402.518528097	20.471501	-97.343051	Mexico	NA	PAPANTLA DE OLARTE	TALAXCA DONATO MARQUEZ	206	410593	317393	8748	0.0275620445315429
SEEDGWAS1641	407.618009433	21.544818	-98.905924	Mexico	NA		COXCATLAN	182	355002	372984	11102	0.0297653518649594
SEEDGWAS1643	688.418448106	24.25333	-99.481609	Mexico	NA	VILLA HIDALGO	BARBOSA	349	359419	368567	12740	0.0345663068044616
SEEDGWAS1644	689.869925184	24.26666667	-99.48333333	Mexico	NA	VILLA HIDALGO	LA SAN JUANA	358	336828	391158	13155	0.0336309112941574
SEEDGWAS1647	396.443994088	20.43027778	-97.382222	Mexico	NA	PAPANTLA	EL TAJIN	109	363322	364664	12356	0.0338832459469539
SEEDGWAS1648	396.443994088	20.43027778	-97.382222	Mexico	NA	PAPANTLA	EL TAJIN	109	430030	297956	8553	0.0287055806897663
SEEDGWAS1651	922.718274577	14.9	-92.25	Mexico	NA		TAPACHULA	157	332540	395446	15011	0.0379596708526575
SEEDGWAS1652	249.526235443	19.08164	-102.373599	Mexico	NA		APATZINGAN	302	318998	408988	14580	0.0356489676958737
SEEDGWAS1653	249.526235443	19.08164	-102.373599	Mexico	NA		APATZINGAN	302	346910	381076	15259	0.0400418814094826
SEEDGWAS1654	115.119988329	18.71666667	-99.36666667	Mexico	NA		MAZATEPEC	952	593206	134780	1726	0.0128060543107286
SEEDGWAS1655	689.159421927	21.993057	-105.382959	Mexico	NA	TUXPAN	EJIDO PALMA GRANDE	4	380977	347009	12263	0.035339141059742
SEEDGWAS1656	689.159421927	21.993057	-105.382959	Mexico	NA	TUXPAN	EJIDO PALMA GRANDE	4	315357	412629	16273	0.0394373638304627
SEEDGWAS1658	1456.02674657	21.218989	-86.724004	Mexico	NA		ISLA MUJERES	20	310542	417444	17193	0.0411863627217064
SEEDGWAS1660	6587.34724621	-23.4	-56.88333333	South America	NA	CONCEPCION	HORQUETA	178	418580	309406	8018	0.0259141710244792
SEEDGWAS1661	4237.71477641	9.101847	-62.028567	Central America	NA	DELTA AMACURO	CAMPO FLORIDO (DTO. TUCUPITA)	7	331369	396617	10123	0.0255233638497593
SEEDGWAS1662	419.770690432	21.83299	-99.634229	Mexico	NA		RAYON	963	368835	359151	13237	0.0368563640362967
SEEDGWAS1663	440.398381893	22.023366	-99.653771	Mexico	NA		CARDENAS	1221	343675	384311	14752	0.0383855783467036
SEEDGWAS1665	126.727729366	17.53333333	-101.2833333	Mexico	NA	PETATLAN	MESA DEL PALMAR	24	453980	274006	6513	0.0237695524915513
SEEDGWAS1666	540.595105626	17.88333333	-95.13333333	Mexico	NA		SAN JUAN EVANGELISTA	27	325390	402596	16506	0.0409989170284851
SEEDGWAS1667	1422.73575086	20.51666667	-86.91666667	Mexico	NA		COZUMEL	8	370611	357375	11321	0.0316782091640434
SEEDGWAS1668	1138.73534234	20.250295	-89.633331	Mexico	NA	SANTA ELENA	RUINAS DE CABAH	65	341018	386968	10363	0.0267799921440533
SEEDGWAS1669	1155.64324083	20.96666667	-89.63333333	Mexico	NA		MERIDA	11	316354	411632	16006	0.0388842461227504
SEEDGWAS167	406.335080507	20.910099	-97.762003	Mexico	NA	ALAMO	PALO BLANCO	42	367221	360765	13335	0.0369631200365889
SEEDGWAS1670	1155.64324083	20.96666667	-89.63333333	Mexico	NA		MERIDA	11	391825	336161	9481	0.0282037476090326
SEEDGWAS1671	4228.80328113	8.162519	-62.430141	Central America	NA	BOLIVAR	LOS ROSOS (SECTOR SUCUTUN)	249	384140	343846	9699	0.028207395171094
SEEDGWAS1673	1086.78173623	19.716788	-90.046207	Mexico	NA	HOPELCHEN	SUCTUC	92	384738	343248	10003	0.0291421945648627
SEEDGWAS1674	1079.50488119	19.746176	-90.12082	Mexico	NA	CAMPECHE	PUEBLO NUEVO	46	509210	218776	3773	0.0172459501956339
SEEDGWAS1676	396.721560742	21.426842	-98.869208	Mexico	NA		VILLA TERRAZAS (AXTLA DE TERRAZAS)	95	345863	382123	13461	0.0352268772096943
SEEDGWAS1679	129.713540978	17.581508	-101.342386	Mexico	NA		SAN JERONIMO	58	364529	363457	13219	0.0363701895960182
SEEDGWAS168	410.73961062	20.893005	-97.675796	Mexico	NA	ALAMO	SAN ANTONIO	27	333965	394021	16393	0.041604381492357
SEEDGWAS1680	121.507588898	17.678521	-101.303874	Mexico	NA	PETETLAN	MURGA	123	373410	354576	12035	0.0339419475655431
SEEDGWAS1681	400.198859962	21.399889	-98.712616	Mexico	NA		TAMPACAN	298	276823	451163	20982	0.0465064732701928
SEEDGWAS1682	838.295169291	16.332904	-92.564373	Mexico	NA		VENUSTIANO CARRANZA	700	351972	376014	13919	0.0370172387198349
SEEDGWAS1683	838.295169291	16.332904	-92.564373	Mexico	NA		VENUSTIANO CARRANZA	700	400186	327800	11348	0.0346186699206833
SEEDGWAS1684	838.295169291	16.332904	-92.564373	Mexico	NA		VENUSTIANO CARRANZA	700	426074	301912	9429	0.0312309547152813
SEEDGWAS1685	838.295169291	16.332904	-92.564373	Mexico	NA		VENUSTIANO CARRANZA	700	382751	345235	12090	0.0350196243138732
SEEDGWAS1689	385.10115123	21.26666667	-98.75	Mexico	NA		TAMAZUNCHALE	150	426690	301296	9271	0.030770405182943
SEEDGWAS169	421.511707097	21.15	-97.85	Mexico	NA	TEPETZINTLA	KILOMETRO 48 TEPETZINTLA	324	319894	408092	16600	0.040677102222048
SEEDGWAS1690	863.564373796	15.332888	-92.659404	Mexico	NA		ESCUINTLA	93	301913	426073	17756	0.0416736099213046
SEEDGWAS1691	1240.91810779	20.729917	-88.732928	Mexico	NA		YOHDZONOT	28	351301	376685	15354	0.0407608479233312
SEEDGWAS1693	768.605443369	16.25	-93.26666667	Mexico	NA		VILLA FLORES	572	271995	455991	20356	0.0446412319541394
SEEDGWAS1694	165.09497534	17.971798	-101.799996	Mexico	NA		LA UNION	106	393683	334303	11342	0.0339273054683924
SEEDGWAS1695	768.605443369	16.25	-93.26666667	Mexico	NA		VILLA FLORES	572	297241	430745	17855	0.0414514387862889
SEEDGWAS1696	6959.83620956	-25.859064	-54.341249	South America	NA	MISIONES	ESPERANZA, IGUAZU	275	364421	363565	12429	0.0341864590925969
SEEDGWAS1697	6575.34847751	-24.96666667	-58.56666667	South America	NA	FORMOSA	ESPINILLO, PILAGAS	85	355852	372134	13251	0.0356081411534555
SEEDGWAS1698	6611.73464979	-26.16666667	-59.31666667	South America	NA	FORMOSA	KM. 224-VILLA 213, PIRANE	85	499189	228797	5172	0.0226051915016368
SEEDGWAS170	443.516197421	21.38333333	-97.83333333	Mexico	NA		CONGREGACION OCAMPO	76	471752	256234	6195	0.0241771193518425
SEEDGWAS1701	584.672542964	16.43333333	-95.01666667	Mexico	NA		JUCHITAN DE ZARAGOZA	28	338918	389068	15610	0.0401215211736766
SEEDGWAS1704	639.883063584	22.274119	-104.469957	Mexico	NA	LAS NORAS	COMUNIDAD SANTA ROSA	648	282329	445657	20082	0.0450615607967563
SEEDGWAS1705	165.09497534	17.971798	-101.799996	Mexico	NA	LA UNION	SANTA MARIA	106	270345	457641	21223	0.0463747784835712
SEEDGWAS1707	1191.94392315	20.880724	-89.251078	Mexico	NA		TAHMEK	16	402701	325285	9220	0.0283443749327513
SEEDGWAS1708	861.608067548	15.28333333	-92.7	Mexico	NA		ACAPETAGUA	28	309519	418467	17871	0.042705876449039
SEEDGWAS1709	709.281654173	16.7	-93.71666667	Mexico	NA		CINTALAPA	547	369986	358000	11876	0.0331731843575419
SEEDGWAS171	454.487671882	21.28333333	-97.51666667	Mexico	NA	TAMIAHUA	TAMPACHE LAS FLORES	22	370729	357257	12211	0.0341798761115947
SEEDGWAS1710	723.835263924	17.85	-93.4	Mexico	NA	HUIMANGUILLO	FRANCISCO TRUJILLO GARCIA	34	323661	404325	16742	0.0414072837445125
SEEDGWAS1711	158.622708338	18.317643	-101.728267	Mexico	NA		COAHUAYUTLA	342	260543	467443	22962	0.0491225668156331
SEEDGWAS1712	563.830791568	16.498068	-95.200253	Mexico	NA	MAGDALENA TLACOTEPEC	MAGDALENA TLACOTEPEC	111	300920	427066	18826	0.0440821793352784
SEEDGWAS1713	565.406026888	19.936732	-105.262282	Mexico	NA	TOMATLAN	TOMATLAN	22	364181	363805	14220	0.0390868734624318
SEEDGWAS1714	565.406026888	19.936732	-105.262282	Mexico	NA	TOMATLAN	TOMATLAN	22	374755	353231	12116	0.0343005002392202
SEEDGWAS1715	492.419622433	19.697393	-104.612035	Mexico	NA	VILLA PURIFICACION	PURIFICACION	422	312704	415282	17348	0.0417740234346781
SEEDGWAS1716	492.419622433	19.697393	-104.612035	Mexico	NA	VILLA PURIFICACION	PURIFICACION	422	334839	393147	16296	0.0414501446024006
SEEDGWAS1717	565.406026888	19.936732	-105.262282	Mexico	NA	TOMATLAN	TOMATLAN	22	386277	341709	12121	0.0354717025305157
SEEDGWAS1719	565.406026888	19.936732	-105.262282	Mexico	NA	TOMATLAN	TOMATLAN	22	345675	382311	11347	0.029680024901193
SEEDGWAS172	421.511707097	21.15	-97.85	Mexico	NA		TEPETZINTLA	325	350176	377810	14114	0.0373574018686641
SEEDGWAS1720	565.406026888	19.936732	-105.262282	Mexico	NA	TOMATLAN	TOMATLAN	22	265429	462557	22065	0.0477022291306801
SEEDGWAS1721	22.1779156357	18.298628	-100.249473	Mexico	NA		ARCELIA	513	382395	345591	11876	0.0343643208301142
SEEDGWAS1722	650.5173048	16.48333333	-94.35	Mexico	NA		ZANATEPEC	68	324324	403662	16621	0.0411755379500671
SEEDGWAS1723	366.456069679	17.528084	-96.831814	Mexico	NA	SAN JUAN BAUTISTA VALL	SAN JUAN BAUTISTA VALLE NACIONAL	993	497624	230362	3533	0.0153367308844341
SEEDGWAS1725	484.056972891	17.16	-95.78	Mexico	NA	SAN JUAN COTZOCON	SAN JUAN COTZOCON	1341	368830	359156	11754	0.0327267259909343
SEEDGWAS1726	484.056972891	17.16	-95.78	Mexico	NA	SAN JUAN COTZOCON	SAN JUAN COTZOCON	1341	246338	481648	23872	0.0495631664618144
SEEDGWAS1727	484.056972891	17.16	-95.78	Mexico	NA	SAN JUAN COTZOCON	SAN JUAN COTZOCON	1341	350629	377357	11996	0.031789525568626
SEEDGWAS1728	484.056972891	17.16	-95.78	Mexico	NA	SAN JUAN COTZOCON	SAN JUAN COTZOCON	1341	292004	435982	17834	0.0409053584781023
SEEDGWAS1729	6608.98488315	-26.355818	-59.55763	South America	NA	CHACO	COSTA GUAYCURU	83	341590	386396	14129	0.0365661135208439
SEEDGWAS173	447.582200133	21.35	-97.71666667	Mexico	NA	CHINAMPA DE GOROSTIZA	SAN ANTONIO	125	355620	372366	14254	0.0382795421708749
SEEDGWAS1730	6608.98488315	-26.355818	-59.55763	South America	NA	CHACO	COSTA GUAYCURU	83	321028	406958	16757	0.0411762393170794
SEEDGWAS1731	6558.93879851	-27.13333333	-61.13333333	South America	NA	CHACO	LAS BRENAS	98	405634	322352	9346	0.0289931503449645
SEEDGWAS1732	6608.99003582	-26.187077	-59.376539	South America	NA	FORMOSA	VILLA DOS TRECE	86	350860	377126	9599	0.0254530316127766
SEEDGWAS1733	6521.21617633	-25.33	-59.68	South America	NA	FORMOSA	COLONIA BANADEROS	102	283486	444500	19949	0.0448796400449944
SEEDGWAS1736	662.463733045	21.82	-105.2	Mexico	NA		SANTIAGO IXCUINTLA	15	291246	436740	13541	0.0310047167651234
SEEDGWAS1737	662.463733045	21.82	-105.2	Mexico	NA		SANTIAGO IXCUINTLA	15	354275	373711	15236	0.0407694715970362
SEEDGWAS1739	662.463733045	21.82	-105.2	Mexico	NA		SANTIAGO IXCUINTLA	15	245921	482065	25456	0.0528061568460685
SEEDGWAS174	430.371902443	20.062451	-96.710604	Mexico	NA		SAN BARTOLO/HOY CARMONA VALLE	27	362378	365608	12626	0.0345342552679372
SEEDGWAS1740	1138.03139129	20.3	-89.65	Mexico	NA		SANTA ELENA	62	330554	397432	12043	0.030302039090964
SEEDGWAS1741	355.7383301	20.007577	-97.52396	Mexico	NA		CUETZALAN	1043	279964	448022	19617	0.0437857962332207
SEEDGWAS1742	667.226536626	21.96666667	-105.1333333	Mexico	NA		RUIZ	28	359970	368016	12600	0.0342376418416591
SEEDGWAS1743	667.226536626	21.96666667	-105.1333333	Mexico	NA		RUIZ	28	317348	410638	14360	0.0349699735533487
SEEDGWAS1744	740.694803349	18.296126	-93.2296	Mexico	NA	COMALCALCO	CARLOS GREEN RANCHERIA PRIMERA SECCION	7	303413	424573	17566	0.0413733327366554
SEEDGWAS1749	6608.92672157	-26.187748	-59.378135	South America	NA	FORMOSA	PIRANE, VILLA DOS TRECE	86	350733	377253	14395	0.038157416905896
SEEDGWAS1751	6585.74648131	-26.87	-60.45	South America	NA	CHACO	COMANDANTE FERNANDEZ, PCIA. ROQUE SAENZ PENA	92	350315	377671	12483	0.0330525775079368
SEEDGWAS1752	6551.17594332	-26.68	-60.73	South America	NA	CHACO	INDEPENDENCIA, AVIA TERAI	102	315220	412766	16818	0.0407446349747799
SEEDGWAS1755	469.732525668	19.76666667	-104.35	Mexico	NA		AUTLAN DE NAVARRO	907	376177	351809	13025	0.0370229300557973
SEEDGWAS1756	469.732525668	19.76666667	-104.35	Mexico	NA		AUTLAN	907	338019	389967	14303	0.0366774624519511
SEEDGWAS1759	1115.8610877	26.95746	-105.370775	Mexico	NA	VALLE DE ALLENDE	RANCHO JERUSALEM	1587	376013	351973	12325	0.0350168905001236
SEEDGWAS176	426.64576185	21.51666667	-98.38333333	Mexico	NA		LA Y GRIEGA TEMPORAL	60	478919	249067	6562	0.0263463244829704
SEEDGWAS1760	1130.61614223	27.1283333	-105.3313889	Mexico	NA	VALLE DE ALLENDE	COLONIA PROGRESO	1505	336585	391401	13427	0.0343049711165786
SEEDGWAS1761	1110.77953252	27.130649	-104.890933	Mexico	NA	JIMENEZ	LOS ZACATALES	1379	389631	338355	11409	0.0337190229197145
SEEDGWAS1766	872.995139284	25.434457	-103.274676	Mexico	NA	MUNICIPIO DE VIESCA	EL SALTO MIELERAS	1141	369767	358219	12974	0.0362180677183511
SEEDGWAS1767	431.626681371	20.66666667	-103.3333333	Mexico	NA		GUADALAJARA	1563	356573	371413	14540	0.0391477950421768
SEEDGWAS1769	1981.35291379	9.826232	-83.94789	Central America	NA	CARTAGO	PEDREGAL HIGUITO SAN ISIDRO DEL GUARCO	1388	304669	423317	16577	0.0391597786056312
SEEDGWAS177	513.44481122	22.11	-97.8	Mexico	NA		TAMPICO ALTO	27	377261	350725	12265	0.0349704184189892
SEEDGWAS1770	1960.42196994	9.811291	-84.176335	Central America	NA	SAN JOSE	CHIRRACA DE ACOSTA	958	296122	431864	15838	0.0366735824240965
SEEDGWAS1771	1126.05008359	14.348901	-90.43608	Central America	NA	SANTA ROSA	FINCA VINAS	1020	369761	358225	13609	0.0379900900272175
SEEDGWAS1773	1175.6672358	14.497025	-89.875981	Central America	NA	JALAPA	MONJAS	960	403366	324620	10392	0.0320128149836732
SEEDGWAS1775	332.519591399	19.96666667	-102.7166667	Mexico	NA		JIQUILPAN	1782	386532	341454	11618	0.0340250809772327
SEEDGWAS1777	318.116110717	20.6	-98.76666667	Mexico	NA	SAN CRISTOBAL	GTO. METZTITLAN	1357	292524	435462	20649	0.0474186036898742
SEEDGWAS1778	247.728330134	20.198115	-101.03832	Mexico	NA	YURIRIA	CASACUARAN	1738	305471	422515	17992	0.0425831035584535
SEEDGWAS1779	1021.55472525	14.530291	-91.413563	Central America	NA	SUCHITEPEQUEZ	FINCA SAN ANTONIO SANTO TOMAS	371	389342	338644	10856	0.0320572636751279
SEEDGWAS178	2062.66581957	9.913101	-83.052593	Central America	NA	PUERTO LIMON	LA BOMBA LINEA ESTRELLA	19	416309	311677	9803	0.0314524331278856
SEEDGWAS1781	1091.13997008	15.092398	-90.487282	Central America	NA	BAJA VERAPAZ	PAOJ CHATEGUA RABINAL	963	369040	358946	11158	0.0310854557510043
SEEDGWAS1782	1170.45869117	14.673184	-89.858477	Central America	NA	JALAPA	EL PINALITO SAN PEDRO PINULA	1111	321963	406023	14803	0.0364585257485413
SEEDGWAS1783	1182.32046752	14.348233	-89.870508	Central America	NA	JUTIAPA	EL PROGRESO	1042	379462	348524	10147	0.0291142073429663
SEEDGWAS1784	1197.4715777	14.78333333	-89.55	Central America	NA	CHIQUIMULA	EL CUJE QUEZALTEPEQUE	430	294064	433922	17813	0.0410511566594918
SEEDGWAS1786	588.028397892	23.369168	-100.75378	Mexico	NA		VILLA GUADALUPE	1627	346989	380997	12578	0.0330133833074801
SEEDGWAS1788	893.571160405	25.72199	-103.005314	Mexico	NA	MUNICIPIO DE SAN PEDRO	SANTA ELENA	1104	371007	356979	11353	0.0318029912123682
SEEDGWAS1789	340.159748481	20.955531	-101.411113	Mexico	NA	SILAO	GRANJA VIRGINIA	1788	307289	420697	18610	0.0442361129268809
SEEDGWAS179	2083.17587818	9.783843	-82.910317	Central America	NA	PUERTO LIMON	PENHURST LINEA ESTRELLA	6	398136	329850	10826	0.0328209792329847
SEEDGWAS1790	2136.98326209	8.74664	-82.942292	Central America	NA	PUNTARENAS	AGUA BUENA CANAS GORDAS	1065	377651	350335	11821	0.0337419898097535
SEEDGWAS1791	2285.96502576	8.246152	-81.666375	Central America	NA	CHIRIQUI	COMUN TOLE	337	350714	377272	14528	0.0385080260395683
SEEDGWAS1792	2255.57095944	8.258527	-81.980232	Central America	NA	CHIRIQUI	RABO DE PUERCO SAN JUAN	20	497995	229991	4991	0.0217008491636629
SEEDGWAS1793	2250.40764733	8.31586	-82.000377	Central America	NA	CHIRIQUI	CIENEGUITA SAN JUAN	48	311027	416959	17279	0.0414405253274303
SEEDGWAS1794	1200.38044032	14.616667	-89.583333	Central America	NA	CHIQUIMULA	LA CORONADA IPALA	986	422834	305152	8984	0.0294410654362416
SEEDGWAS1795	1196.44087078	14.61198	-89.624187	Central America	NA	CHIQUIMULA	LAS CRUCES IPALA	852	421871	306115	10163	0.0331999411985692
SEEDGWAS1796	1168.55570081	14.278122	-90.038483	Central America	NA	JUTIAPA	QUEZADA	967	375310	352676	12621	0.0357863875058127
SEEDGWAS1797	1121.26538285	14.656366	-90.354714	Central America	NA	Central America	PALENCIA	1534	355280	372706	11665	0.0312981277468031
SEEDGWAS1798	317.418219029	20.01666667	-102.4833333	Mexico	NA		CHAVINDA	1583	406690	321296	10346	0.0322008366117225
SEEDGWAS1799	338.875921685	20.112922	-102.666996	Mexico	NA		VILLA VENUSTIANO CARRANZA	1531	345947	382039	15625	0.0408989658123909
SEEDGWAS180	1874.43329708	10.583915	-84.640069	Central America	NA	ALAJUELA	LAS DELICIAS SAN CARLOS	214	392399	335587	11833	0.0352606030626931
SEEDGWAS1800	1184.47390393	14.26666667	-89.88333333	Central America	NA	JUTIAPA	EL BARRIAL	878	418072	309914	7943	0.0256296908174526
SEEDGWAS1802	3389.07509903	10.568005	-69.691145	Central America	NA	LARA	SIQUISUQUE	270	358385	369601	12285	0.0332385464325042
SEEDGWAS1803	763.28378534	16.782368	-93.176559	Mexico	NA		TERAN	633	402906	325080	10730	0.0330072597514458
SEEDGWAS1804	553.045910604	21.110878	-104.449948	Mexico	NA		JALA	1099	401153	326833	10952	0.0335094681381623
SEEDGWAS1806	5606.89699002	-18.046032	-64.432761	South America	NA	SANTA CRUZ	CABALLERO, SAN ISIDRO	1573	266486	461500	22305	0.0483315276273023
SEEDGWAS1807	7534.60648234	-11.36666667	-38.35	South America	NA	BAHIA	OLINDINA	153	358001	369985	12668	0.0342392259145641
SEEDGWAS1809	835.711113756	15.86666667	-92.73333333	Mexico	NA		ANGEL ALBINO CORZO	675	322106	405880	18466	0.0454962057751059
SEEDGWAS1810	705.754966808	16.23	-93.89	Mexico	NA		ARRIAGA	72	302942	425044	18304	0.0430637769266241
SEEDGWAS1811	176.825658346	18.88333333	-98.78333333	Mexico	NA		OCUITUCO	1854	363553	364433	14715	0.0403777923514062
SEEDGWAS1812	902.614758796	16.328624	-91.943308	Mexico	NA		LAS MARGARITAS	1494	349946	378040	13434	0.0355359221246429
SEEDGWAS1816	905.826769649	15.7	-92.1	Mexico	NA		FRONTERA COMALAPA	726	335139	392847	14507	0.0369278625011773
SEEDGWAS1818	437.045192147	22.031961	-100.21527	Mexico	NA	CIUDAD FERNANDES	SAN JOSE DE GALLINAS	1057	414722	313264	9732	0.0310664487461055
SEEDGWAS1819	403.113179847	21.71083333	-99.88277778	Mexico	NA	RIO VERDE	PUERTO DE MARTINEZ	962	381796	346190	12335	0.0356307230133742
SEEDGWAS182	1901.51766334	10.365506	-84.478463	Central America	NA	ALAJUELA	FLORENCIA SAN CARLOS	217	388077	339909	13657	0.0401784006895963
SEEDGWAS1820	403.077839863	21.71058	-99.883528	Mexico	NA	RIO VERDE	PUERTO MARTINEZ	960	357922	370064	13567	0.0366612261662847
SEEDGWAS1821	409.678353989	21.7722222	-99.9072222	Mexico	NA	RIO VERDE	SAN JOSE DEL TAPANCO	903	322553	405433	14572	0.0359418202267699
SEEDGWAS1822	412.324437415	21.79805556	-99.9322222	Mexico	NA	RIO VERDE	PLAZUELA	943	396663	331323	10757	0.0324668073149163
SEEDGWAS1823	659.198622295	23.91666667	-99	Mexico	NA		GUEMEZ	172	267208	460778	22966	0.0498417893215388
SEEDGWAS1825	7519.83732871	-10.7	-38.18333333	South America	NA	SERGIPE	POCO VERDE	257	304733	423253	18712	0.044209964253059
SEEDGWAS1826	7519.83732871	-10.7	-38.18333333	South America	NA	SERGIPE	POCO VERDE	257	466702	261284	5943	0.0227453651964912
SEEDGWAS1827	7519.83732871	-10.7	-38.18333333	South America	NA	SERGIPE	POCO VERDE	257	320094	407892	14653	0.0359237249075736
SEEDGWAS1828	411.579084307	20.78333333	-102.95	Mexico	NA	ACATIC	TIERRAS COLORADAS	1676	288742	439244	21641	0.049268743568495
SEEDGWAS1829	494.962290868	20.8	-104	Mexico	NA		ANTONIO ESCOBEDO	1389	358268	369718	13313	0.0360085254166689
SEEDGWAS183	1894.27873429	10.050159	-84.733838	Central America	NA	PUNTARENAS	SAN ISIDRO MIRAMAR	131	421813	306173	8931	0.0291697830964847
SEEDGWAS1830	742.161371815	16.76666667	-93.38333333	Mexico	NA		OCOZOCUAUTLA ESPINO	812	461841	266145	6664	0.0250389825095343
SEEDGWAS1831	905.826769649	15.7	-92.1	Mexico	NA		FRNTERA COMALAPA	726	376279	351707	11539	0.032808559397453
SEEDGWAS1832	905.826769649	15.7	-92.1	Mexico	NA		FRONTERA COMALAPA	726	444570	283416	6822	0.0240706241002625
SEEDGWAS1833	905.826769649	15.7	-92.1	Mexico	NA		FRONTERA COMALAPA	726	478638	249348	6317	0.0253340712578404
SEEDGWAS1834	905.826769649	15.7	-92.1	Mexico	NA		FRONTERA COMALAPA	726	332054	395932	15708	0.0396734792843216
SEEDGWAS1835	905.826769649	15.7	-92.1	Mexico	NA		FRONTERA COMALAPA	726	411905	316081	9691	0.0306598625035988
SEEDGWAS1836	897.532046393	16.11666667	-92.05	Mexico	NA		LA TRINITARIA	1536	360563	367423	12336	0.0335743815711047
SEEDGWAS1837	815.928704636	16.602202	-92.711648	Mexico	NA		EL ZAPOTAL	738	341471	386515	13722	0.0355018563315783
SEEDGWAS1838	897.532046393	16.11666667	-92.05	Mexico	NA		LA TRINITARIA	1536	289146	438840	19186	0.043719806763285
SEEDGWAS1839	470.60011999	22.333956	-100.265107	Mexico	NA		VILLA JUAREZ	1111	389573	338413	10320	0.0304952823916339
SEEDGWAS1840	395.263839467	21.635442	-99.836545	Mexico	NA		SAN CIRO	936	370723	357263	12852	0.0359734985150995
SEEDGWAS1841	6773.02311842	-25.453824	-56.408868	South America	NA	CAAGUAZU	CORONEL OVIEDO	185	292493	435493	13559	0.0311348288032184
SEEDGWAS1842	6677.7725025	-25.333228	-57.558546	South America	NA		ASUNCION(MERCADO)	165	343989	383997	9625	0.0250652999893228
SEEDGWAS1844	7222.98039458	-29.333333	-54.166667	South America	NA		RIO GRANDE DO SUL	224	426210	301776	5555	0.0184076931233763
SEEDGWAS1845	7222.98039458	-29.333333	-54.166667	South America	NA		RIO GRANDE DO SUL	224	312835	415151	10324	0.024868060055257
SEEDGWAS1846	6664.62921841	-22.200732	-54.828953	South America	NA	MATO GROSSO	DOURADOS	447	373977	354009	5832	0.0164741574366753
SEEDGWAS1847	6668.06221408	-22.21666667	-54.8	South America	NA	MATO GROSSO	DOURADOS	444	298952	429034	15832	0.0369015043096817
SEEDGWAS1848	7453.17923638	-34.644305	-56.634113	South America	NA	SAN JOSE	C. LIBERTAD	30	404744	323242	6986	0.0216122904820537
SEEDGWAS185	1852.58424591	10.432058	-84.952374	Central America	NA	GUANACASTE	QUEBRADA GRANDE TILARAN	696	219252	508734	25914	0.0509382113245822
SEEDGWAS1851	7020.74299146	-23.916667	-51.866667	South America	NA	PARANA	SAN PEDRO DO IVAI	339	308883	419103	8516	0.0203195873090863
SEEDGWAS1852	6790.33304995	-25.620658	-56.341191	South America	NA	GUAIRA	COLONIA DOCTOR BOTTRELL(NATALICIO TALAVERA)	162	382608	345378	8234	0.0238405457209203
SEEDGWAS1854	6664.62921841	-22.200732	-54.828953	South America	NA	MATO GROSSO	DOURADOS	447	346627	381359	10487	0.0274990232300798
SEEDGWAS1855	7020.74299146	-23.916667	-51.866667	South America	NA	PARANA	SAN PEDRO DO IVAI	339	352590	375396	9941	0.0264813690076612
SEEDGWAS1856	7020.74299146	-23.916667	-51.866667	South America	NA	PARANA	SAN PEDRO DO IVAI	339	392543	335443	9411	0.0280554371383514
SEEDGWAS1857	7027.338234	-23.55	-51.483333	South America	NA	PARANA	APUCARANA	743	301376	426610	15105	0.0354070462483299
SEEDGWAS1858	7027.338234	-23.55	-51.483333	South America	NA	PARANA	APUCARANA	743	353024	374962	7785	0.0207621038931945
SEEDGWAS186	1849.86497474	10.49901	-84.943094	Central America	NA	GUANACASTE	SAN LUIS TILARAN	656	417462	310524	9915	0.0319298991382309
SEEDGWAS1864	7020.74299146	-23.916667	-51.866667	South America	NA	PARANA	SAN PEDRO DO IVAI	337	377209	350777	11545	0.0329126482066954
SEEDGWAS1866	7162.90493758	-3.81233	-38.693975	South America	NA	CEARA	E. AGRONOMIA CA. FORTALEZA	43	351705	376281	13355	0.0354920923458798
SEEDGWAS1867	7162.90493758	-3.81233	-38.693975	South America	NA	CEARA	E. AGRONOMIA CA. FORTALEZA	43	334301	393685	15870	0.0403114164878012
SEEDGWAS1868	7162.90493758	-3.81233	-38.693975	South America	NA	CEARA	E. AGRONOMIA CA. FORTALEZA	43	380038	347948	12439	0.0357495947670342
SEEDGWAS1869	7128.41097353	-5.45	-39.71666667	South America	NA	CEARA	CATOLE CA. PEDRA BRANCA	498	362693	365293	11755	0.0321796475705803
SEEDGWAS187	1823.5872141	10.065598	-85.473735	Central America	NA	GUANACASTE	CAIMITAL NICOYA	170	386411	341575	10940	0.0320281051013687
SEEDGWAS1870	6386.04164243	-14.63425	-52.31735	South America	NA	MATO GROSSO	XAVANTES CA. XAVANTINA	291	471328	256658	7224	0.0281464049435435
SEEDGWAS188	2076.734272	9.154099	-83.335913	Central America	NA	PUNTARENAS	BUENOS AIRES	376	343685	384301	15740	0.0409574786430428
SEEDGWAS1884	425.130581575	20.55	-97.13	Mexico	NA	TECOLUTLA	BOCA DE LIMA	21	313116	414870	9027	0.0217586231831658
SEEDGWAS1885	422.16011786	20.566064	-97.181289	Mexico	NA	PAPANTLA DE OLARTE	CAMPO TENIXTEPEC	56	260155	467831	19883	0.0425003900981337
SEEDGWAS1887	406.335080507	20.910099	-97.762003	Mexico	NA	ALAMO	PALO BLANCO	42	391080	336906	10699	0.031756632413789
SEEDGWAS1888	447.582200133	21.35	-97.71666667	Mexico	NA		SAN ANTONIO CHINAMPA	125	453268	274718	8592	0.0312757081807526
SEEDGWAS1889	1899.03564255	10.403208	-84.483438	Central America	NA	ALAJUELA	QUEBRADA AZUL SAN CARLOS	81	536754	191232	3311	0.0173140478580991
SEEDGWAS1890	2164.84317207	8.469841	-82.815169	Central America	NA	CHIRIQUI	JACU	31	329985	398001	15683	0.0394044236069759
SEEDGWAS1891	6831.3890348	-26.864407	-57.024295	South America	NA	MISIONES	COLONIA SAN IGNACIO	147	459174	268812	4824	0.017945627427347
SEEDGWAS1894	7605.32530692	-8.883333333	-36.5	South America	NA	PERNAMBUCO	GARANHUNS	864	339991	387995	13519	0.0348432325158829
SEEDGWAS1895	7020.74299597	-23.91666667	-51.86666667	South America	NA	PARANA	SAN PEDRO DO IVAI	319	283105	444881	19803	0.0445130270791515
SEEDGWAS1898	7060.16059173	-22.437175	-50.202062	South America	NA	SAO PAULO	ECHAPORA	687	322229	405757	18051	0.0444872177189796
SEEDGWAS1899	6791.10198008	-25.611328	-56.321956	South America	NA	GUAIRA	COLONIA DOCTOR BOTTRELL	182	298775	429211	12294	0.0286432547162118
SEEDGWAS190	2077.20878454	9.15	-83.33333333	Central America	NA	PUNTARENAS	BAJO DE PLATANAS BUENOS AIRES	383	393251	334735	12770	0.0381495810118452
SEEDGWAS1903	7137.58192332	-25.966667	-52.15	South America	NA	PARANA	MANGUEIRINHA	715	373740	354246	8699	0.0245563817234351
SEEDGWAS1904	7137.58192332	-25.966667	-52.15	South America	NA	PARANA	MANGUEIRINHA	717	333728	394258	11253	0.028542223620066
SEEDGWAS1905	7647.68398109	-8.215027	-35.788568	South America	NA	PERNAMBUCO	BEZERROS VILLA ENCRUZILH	692	335132	392854	15247	0.038810855941393
SEEDGWAS1906	7527.4466696	-31.75	-52.38333333	South America	NA	RIO GRANDE DO SUL	PELOTAS	16	332382	395604	12331	0.0311700589478367
SEEDGWAS1907	7308.74703804	-21.55	-46.63333333	South America	NA	SAO PAULO	CACONDE	787	438617	289369	7009	0.0242216685270364
SEEDGWAS1908	7055.79668902	-20.96666667	-49.15	South America	NA	SAO PAULO	UCHOA	495	317807	410179	16081	0.039204834962297
SEEDGWAS1909	7318.99830327	-24	-48.3	South America	NA	SAO PAULO	CAPAO BONITO	698	429513	298473	6720	0.0225145993104904
SEEDGWAS191	2136.05261266	8.820336	-82.907759	Central America	NA	PUNTARENAS	SABALITO CANAS GORDAS	913	385703	342283	12481	0.0364639786375601
SEEDGWAS1910	7125.10741016	-22.96666667	-49.83333333	South America	NA	SAO PAULO	OURINHOS	460	302496	425490	15702	0.0369033349784954
SEEDGWAS1914	7387.62410719	-34.341302	-57.277897	South America	NA	COLONIA	VALDENSE	30	283224	444762	18718	0.0420854299602934
SEEDGWAS1917	7088.75741759	-27.616667	-54.3	South America	NA	RIO GRANDE DO SUL	HORIZONTINA	290	393799	334187	11107	0.0332358829038832
SEEDGWAS1918	7097.21462313	-28.169642	-54.724175	South America	NA	RIO GRANDE DO SUL	CERRO LARGO	173	349203	378783	13546	0.0357619006132799
SEEDGWAS1919	7129.697617	-27.899063	-54.02485	South America	NA	RIO GRANDE DO SUL	S. J. INHACORA	432	413683	314303	9543	0.0303624209759372
SEEDGWAS192	2113.48234132	8.515255	-83.335972	Central America	NA	PUNTARENAS	RIO NUEVO PUERTO JIMENEZ	23	416134	311852	9220	0.0295653066198068
SEEDGWAS1920	7137.61802111	-27.9431	-53.96135	South America	NA	RIO GRANDE DO SUL	CHIAPETA	414	422300	305686	9526	0.031162696361626
SEEDGWAS1921	7129.44351464	-27.891122	-54.02062	South America	NA	RIO GRANDE DO SUL	S J INHACORA	400	572775	155211	1371	0.00883313682664244
SEEDGWAS1922	7144.05193254	-28.365057	-54.283493	South America	NA	RIO GRANDE DO SUL	ENTRE IJUIS	250	254904	473082	22457	0.0474695718712612
SEEDGWAS1923	7132.3045727	-27.7	-53.8	South America	NA	RIO GRANDE DO SUL	CAMPOS NOVOS	450	336984	391002	15436	0.0394780589357599
SEEDGWAS1924	7123.75119374	-28.199076	-54.395018	South America	NA	RIO GRANDE DO SUL	LAGEADO CERNE	309	334865	393121	11610	0.0295328919085981
SEEDGWAS1925	7144.05193254	-28.365057	-54.283493	South America	NA	RIO GRANDE DO SUL	ENTRE IJUIS	250	315354	412632	14436	0.0349851683824812
SEEDGWAS1926	7157.07239137	-28.263266	-54.009359	South America	NA	RIO GRANDE DO SUL	CATUIPE	310	438077	289909	5734	0.0197786201877141
SEEDGWAS1927	7505.26445122	-29.846457	-50.855959	South America	NA	RIO GRANDE DO SUL	R. DOS MENDES	117	328334	399652	13266	0.0331938786744468
SEEDGWAS1929	7157.07239137	-28.263266	-54.009359	South America	NA	RIO GRANDE DO SUL	CATUIPE	310	351573	376413	12458	0.0330966252493936
SEEDGWAS193	1943.97381778	9.851254	-84.326233	Central America	NA	SAN JOSE	SAN JUAN PURISCAL	1063	405598	322388	10919	0.0338691266424309
SEEDGWAS1931	7165.96497635	-28.082039	-53.716031	South America	NA	RIO GRANDE DO SUL	PINHAL RAMADA	442	358339	369647	9065	0.0245233966459893
SEEDGWAS1934	7137.61802111	-27.9431	-53.96135	South America	NA	RIO GRANDE DO SUL	CHIAPETA	414	425908	302078	7368	0.0243910513178715
SEEDGWAS1935	7144.05193254	-28.365057	-54.283493	South America	NA	RIO GRANDE DO SUL	ENTRE IJUIS	250	345900	382086	12966	0.0339347686123019
SEEDGWAS1936	7133.85445253	-28.169461	-54.230263	South America	NA	RIO GRANDE DO SUL	COMANDAI	385	327097	400889	16495	0.0411460528974354
SEEDGWAS1937	7297.29253386	-29.61666667	-53.43333333	South America	NA	RIO GRANDE DO SUL	FAXINAL DO SOTURNO	51	414125	313861	7017	0.0223570306600693
SEEDGWAS1938	7247.08290464	-29.639082	-54.141747	South America	NA	RIO GRANDE DO SUL	CINCOENTENARIO	155	326606	401380	14195	0.0353654890627336
SEEDGWAS1939	7315.3960372	-29.81666667	-53.38333333	South America	NA	RIO GRANDE DO SUL	RESTINGA SECA	67	357826	370160	12191	0.03293440674303
SEEDGWAS194	1941.23781148	9.874488	-84.341514	Central America	NA	SAN JOSE	DESAMPARADITOS PURISCAL	847	441522	286464	8222	0.0287016867739053
SEEDGWAS1940	7144.05193254	-28.365057	-54.283493	South America	NA	RIO GRANDE DO SUL	ENTRE IJUIS	250	369654	358332	8756	0.0244354397597758
SEEDGWAS1941	7505.26445122	-29.846457	-50.855959	South America	NA	RIO GRANDE DO SUL	R. DOS MENDES	117	414449	313537	8587	0.0273875172627154
SEEDGWAS1942	7157.07239137	-28.263266	-54.009359	South America	NA	RIO GRANDE DO SUL	CATUIPE	310	378418	349568	10488	0.030002746246796
SEEDGWAS1943	7113.48733343	-27.841705	-54.18627	South America	NA	RIO GRANDE DO SUL	INDEPENDENCIA	366	276087	451899	20139	0.0445652679027836
SEEDGWAS1944	7144.05193254	-28.365057	-54.283493	South America	NA	RIO GRANDE DO SUL	ENTRE IJUIS	250	317162	410824	14363	0.0349614433431348
SEEDGWAS1945	7222.98039458	-29.333333	-54.166667	South America	NA	RIO GRANDE DO SUL	L. 11 NORTE	270	340003	387983	13190	0.0339963348909617
SEEDGWAS1946	7144.05193254	-28.365057	-54.283493	South America	NA	RIO GRANDE DO SUL	ENTRE IJUIS	250	361214	366772	11242	0.0306511947476907
SEEDGWAS1947	7144.05193254	-28.365057	-54.283493	South America	NA	RIO GRANDE DO SUL	ENTRE IJUIS	250	474349	253637	5718	0.0225440294594243
SEEDGWAS1948	7222.98044275	-29.33333333	-54.16666667	South America	NA	RIO GRANDE DO SUL	L. 6 NORTE	322	418131	309855	8239	0.0265898565458037
SEEDGWAS1949	7222.98044275	-29.33333333	-54.16666667	South America	NA	RIO GRANDE DO SUL	MUNICIPAL	322	339249	388737	11359	0.0292202697453548
SEEDGWAS195	1822.90698677	10.11666667	-85.45	Central America	NA	GUANACASTE	SAMARA NICOYA	142	451395	276591	7728	0.0279401715890973
SEEDGWAS1950	7222.98044275	-29.33333333	-54.16666667	South America	NA	RIO GRANDE DO SUL	R. MENDES	322	441531	286455	9035	0.0315407306557749
SEEDGWAS1951	7116.34038621	-28.033333	-54.333333	South America	NA	RIO GRANDE DO SUL	GIRUA	412	306837	421149	16376	0.0388841004015206
SEEDGWAS1952	7129.36923249	-28.290932	-54.409057	South America	NA	RIO GRANDE DO SUL	BURITI	245	263837	464149	22111	0.0476377197839487
SEEDGWAS1953	7222.98044275	-29.33333333	-54.16666667	South America	NA	RIO GRANDE DO SUL	L. 9 NORTE	322	321546	406440	15126	0.0372158252140537
SEEDGWAS1954	7137.61802111	-27.9431	-53.96135	South America	NA	RIO GRANDE DO SUL	CHIAPETA	414	286827	441159	18180	0.0412096319014233
SEEDGWAS1955	7116.34038549	-28.03333333	-54.33333333	South America	NA	RIO GRANDE DO SUL	GIRUA	418	468145	259841	5616	0.0216132173136649
SEEDGWAS1956	7171.47512216	-28.22036	-53.774972	South America	NA	RIO GRANDE DO SUL	AJURICABA	378	331699	396287	12810	0.0323250573448031
SEEDGWAS1957	7419.15784553	-27.21666667	-49.65	South America	NA	SANTA CATARINA	RIO DO SUL	345	357365	370621	14620	0.0394473060080244
SEEDGWAS1958	7129.697617	-27.899063	-54.02485	South America	NA	RIO GRANDE DO SUL	S. J. INHACORA	432	352251	375735	11763	0.0313066389875843
SEEDGWAS1959	7144.05193254	-28.365057	-54.283493	South America	NA	RIO GRANDE DO SUL	ENTRE IJUIS	250	473212	254774	6244	0.0245079953213436
SEEDGWAS196	1281.99227718	14.046305	-88.998453	Central America	NA	CHALATENANGO	CASERIO EL LIMON	270	442207	285779	8764	0.0306670539122889
SEEDGWAS1960	7052.32394319	-22.168869	-50.089271	South America	NA	SAO PAULO	ORIENTE	611	338520	389466	15080	0.0387196828477967
SEEDGWAS1961	7514.2229673	-22.56666667	-44.96666667	South America	NA	SAO PAULO	CRUZEIROS	539	369765	358221	10058	0.0280776392227145
SEEDGWAS1963	7475.34834878	-23.58333333	-46.13333333	South America	NA	SAO PAULO	MOGI DAS CRUZES	783	314914	413072	16377	0.0396468412286478
SEEDGWAS1964	6894.33036035	-21.533333	-51.483333	South America	NA	SAO PAULO	DRACENA	373	469191	258795	6467	0.02498889082092
SEEDGWAS1965	7096.1856974	-22.23333333	-49.61666667	South America	NA	SAO PAULO	GARCA	670	519905	208081	4090	0.019655807113576
SEEDGWAS1966	7430.85374121	-23.55	-46.63333333	South America	NA	SAO PAULO	PEDERNEIRAS	771	315998	411988	16311	0.0395909589599697
SEEDGWAS1967	7212.96355806	-23.542988	-49.22347	South America	NA	SAO PAULO	TAQUARITUBA	616	409873	318113	6757	0.0212408798131482
SEEDGWAS1968	7485.4659479	-23.4	-45.88333333	South America	NA	SAO PAULO	SANTA BRANCA	666	403115	324871	8957	0.0275709435437451
SEEDGWAS1969	7473.28215855	-23.31666667	-45.96666667	South America	NA	SAO PAULO	JACAREI	574	465129	262857	5180	0.0197065324492024
SEEDGWAS197	1246.67257705	14.372973	-89.21822	Central America	NA	CHALATENANGO	CITALA	733	371633	356353	14118	0.0396180192112877
SEEDGWAS1970	7137.67686398	-20.992606	-48.217145	South America	NA	SAO PAULO	PITANGUEIRAS	514	273311	454675	18467	0.0406158244900203
SEEDGWAS1972	7257.44627411	-22.537739	-47.937215	South America	NA	SAO PAULO	SAO PEDRO	632	376934	351052	11880	0.0338411403438807
SEEDGWAS1974	7182.95291064	-20.88333333	-47.61666667	South America	NA	SAO PAULO	BATATAIS	853	355474	372512	12826	0.0344311055751224
SEEDGWAS1975	7085.06307496	-22.790895	-50.177749	South America	NA	SAO PAULO	PALMITAL	478	433874	294112	7834	0.0266361114133391
SEEDGWAS1976	7206.57595321	-22.044979	-48.174103	South America	NA	SAO PAULO	RIBEIRAO BONITO	566	435497	292489	7455	0.0254881380154467
SEEDGWAS1977	7127.18217697	-21.583333	-48.766667	South America	NA	SAO PAULO	ITAPOLIS	552	275100	452886	19465	0.0429799110592953
SEEDGWAS1978	7179.0097762	-23.397216	-49.519177	South America	NA	SAO PAULO	FARTURA	534	318118	409868	13261	0.0323543189514673
SEEDGWAS1979	7179.0097762	-23.397216	-49.519177	South America	NA	SAO PAULO	FARTURA	534	414723	313263	8725	0.0278519965651864
SEEDGWAS198	1496.66922646	14.55	-86.7	Central America	NA	OLANCHO	CAMPAMENTO	858	413588	314398	9826	0.0312533794744241
SEEDGWAS1980	7123.65280466	-22.4	-49.416667	South America	NA	SAO PAULO	DUARTINA	544	272744	455242	20536	0.0451100733236389
SEEDGWAS1981	7123.65283243	-22.4	-49.41666667	South America	NA	SAO PAULO	DUARTINA	520	271502	456484	22239	0.0487180273569282
SEEDGWAS1982	7123.65283243	-22.4	-49.41666667	South America	NA	SAO PAULO	DUARTINA	520	337902	390084	14711	0.0377123901518647
SEEDGWAS1983	7485.4659479	-23.4	-45.88333333	South America	NA	SAO PAULO	SANTA BRANCA	666	373357	354629	9618	0.0271213014164098
SEEDGWAS1984	7463.20631582	-23.03333333	-45.88333333	South America	NA	SAO PAULO	TAUBATE	669	298036	429950	15114	0.0351529247586929
SEEDGWAS1985	7005.00871411	-21.4	-50.066667	South America	NA	SAO PAULO	PENAPOLIS	413	353458	374528	8140	0.021734022556391
SEEDGWAS1986	7081.6129895	-20.55	-48.55	South America	NA	SAO PAULO	BARRETOS	536	348376	379610	14301	0.0376728747925502
SEEDGWAS1987	7162.9978392	-22.46666667	-49	South America	NA	SAO PAULO	AGUDOS	635	365087	362899	13177	0.0363103783697392
SEEDGWAS1988	6980.90453001	-21.30562	-50.280075	South America	NA	SAO PAULO	BURIGUI	392	267410	460576	18003	0.0390880115333843
SEEDGWAS1989	7491.95440875	-22.91666667	-45.46666667	South America	NA	SAO PAULO	PINDAMONHANGABA	539	308487	419499	16635	0.0396544449450416
SEEDGWAS1990	7211.85319644	-21.307837	-47.582481	South America	NA	SAO PAULO	SERRA AZUL	643	527441	200545	3450	0.017203121493929
SEEDGWAS1991	7350.77511798	-23.088964	-47.241578	South America	NA	SAO PAULO	INDAIATUBA	615	279010	448976	13390	0.0298234204055451
SEEDGWAS1992	7350.77511798	-23.088964	-47.241578	South America	NA	SAO PAULO	INDAIATUBA	615	326349	401637	16664	0.0414902013509712
SEEDGWAS1993	7383.30820352	-23.035437	-46.819967	South America	NA	SAO PAULO	ITATIBA	816	339208	388778	13836	0.0355884335018957
SEEDGWAS1994	7180.53901095	-20.53333333	-47.4	South America	NA	SAO PAULO	FRANCA	982	359117	368869	10496	0.0284545461939062
SEEDGWAS1995	7060.16059173	-22.437175	-50.202062	South America	NA	SAO PAULO	ECHAPORA	687	331026	396960	16627	0.0418858323256751
SEEDGWAS1996	6979.38651955	-21.895979	-50.749016	South America	NA	SAO PAULO	BASTOS	495	308469	419517	14960	0.0356600566842345
SEEDGWAS1998	7473.28215855	-23.31666667	-45.96666667	South America	NA	SAO PAULO	JACAREI	574	295723	432263	11964	0.0276775944274666
SEEDGWAS1999	7133.35860064	-21.75	-48.81666667	South America	NA	SAO PAULO	IBITINGA	474	410781	317205	8907	0.0280796330448763
SEEDGWAS2000	7472.30325824	-23.18333333	-45.88333333	South America	NA	SAO PAULO	SAO JOSE DOS CAMPOS	594	443087	284899	6671	0.0234153156030734
SEEDGWAS2001	7399.6651659	-22.95	-46.56666667	South America	NA	SAO PAULO	BRAGANCE PAULISTA	947	346897	381089	9439	0.0247684923994133
SEEDGWAS2003	5648.58983036	-9.151427	-56.771095	South America	NA	MATO GROSSO	TELES PIRES	183	327595	400391	14068	0.0351356548973379
SEEDGWAS2004	7500.48801322	-12.43333333	-39.21666667	South America	NA	BAHIA	FAZ. LIMEIRA SANTO ESTEVAO	208	377574	350412	12891	0.036788123694394
SEEDGWAS2005	7179.0097762	-23.397216	-49.519177	South America	NA	SAO PAULO	FAZ. BARREIROS FARTURA	534	281416	446570	19712	0.0441408961640952
SEEDGWAS2006	7314.80150093	-17.9	-44.18333333	South America	NA	MINAS GERAIS	BUENOPOLIS	633	348538	379448	10338	0.0272448398726571
SEEDGWAS2007	7341.39154813	-18.75	-44.41666667	South America	NA	MINAS GERAIS	FAZ. SERRAGEM CURVELO	629	344724	383262	14293	0.0372930267023603
SEEDGWAS2008	400.198859962	21.399889	-98.712616	Mexico	NA		TAMPACAN	298	521061	206925	4396	0.0212444122266522
SEEDGWAS2009	7532.32454695	-28.51666667	-49.31666667	South America	NA	SANTA CATARINA	URUSSANGA	50	358331	369655	11589	0.0313508541748387
SEEDGWAS2010	7532.32454695	-28.51666667	-49.31666667	South America	NA	SANTA CATARINA	URUSSANGA	50	417894	310092	10177	0.0328192923390478
SEEDGWAS2011	7157.07239137	-28.263266	-54.009359	South America	NA	RIO GRANDE DO SUL	CATUIPE	310	327216	400770	13420	0.0334855403348554
SEEDGWAS2012	7137.61802111	-27.9431	-53.96135	South America	NA	RIO GRANDE DO SUL	CHIAPETA	414	413624	314362	11341	0.0360762433118507
SEEDGWAS2014	7157.07239137	-28.263266	-54.009359	South America	NA	RIO GRANDE DO SUL	CATUIPE	310	486581	241405	5639	0.0233590853544873
SEEDGWAS2015	7137.61802111	-27.9431	-53.96135	South America	NA	RIO GRANDE DO SUL	CHIAPETA	414	349868	378118	11793	0.0311886765507064
SEEDGWAS2016	7137.61802111	-27.9431	-53.96135	South America	NA	RIO GRANDE DO SUL	CHIAPETA	414	378264	349722	10212	0.0292003362670921
SEEDGWAS2017	6918.87964757	-20.26666667	-50.23333333	South America	NA	SAO PAULO	FERNANDO POLIS	500	503089	224897	4143	0.0184217664086226
SEEDGWAS2018	7322.58343593	-23.03333333	-47.53333333	South America	NA	SAO PAULO	CAPIVARI	599	296587	431399	12970	0.0300649746522361
SEEDGWAS202	2486.60691002	9.166666667	-79.1	Central America	NA	Central America	MAJE RESERVA INDIGENA CHEPO	22	397113	330873	8616	0.0260402027363973
SEEDGWAS2022	7138.03828744	-27.93324	-53.946282	South America	NA	RIO GRANDE DO SUL	CHIAPETA	436	282388	445598	15549	0.0348946808558387
SEEDGWAS2024	7419.15784553	-27.21666667	-49.65	South America	NA	SANTA CATARINA	RIO DO SUL	345	396758	331228	9224	0.0278478872559083
SEEDGWAS2025	7176.94732406	-28.527081	-53.998021	South America	NA	RIO GRANDE DO SUL	DOCTOR PESTANA	391	276758	451228	18264	0.0404762115826146
SEEDGWAS2026	7138.03828744	-27.93324	-53.946282	South America	NA	RIO GRANDE DO SUL	CHIAPETA	436	308156	419830	18745	0.0446490246051973
SEEDGWAS2027	7116.34038621	-28.033333	-54.333333	South America	NA	RIO GRANDE DO SUL	GIRUA	412	427990	299996	8208	0.0273603648048641
SEEDGWAS2028	7317.04457444	-25.8	-49.75	South America	NA	PARANA	LAPA	921	320404	407582	13875	0.0340422295390866
SEEDGWAS2029	277.982006157	16.655201	-98.10282	Mexico	NA	CACAHUATEPEC	SAN PEDRO AMUZGOS	507	368499	359487	12083	0.0336117856834879
SEEDGWAS203	2486.60691002	9.166666667	-79.1	Central America	NA	Central America	TURGA PILI RESERVA INDIGENA CHEPO	18	362419	365567	11243	0.0307549642062878
SEEDGWAS2031	7503.74539289	-22.683396	-45.167991	South America	NA	SAO PAULO	STO. ATO. E. POSSE	578	426983	301003	9212	0.030604346136085
SEEDGWAS2032	7061.60857845	-20.756582	-48.92991	South America	NA	SAO PAULO	OLIMPIA	529	304794	423192	13627	0.0322005141874138
SEEDGWAS2035	7528.89414545	-29.8	-50.5	South America	NA	RIO GRANDE DO SUL	SANTO ANTONIO	147	312215	415771	17076	0.0410706855456489
SEEDGWAS2036	7113.48733343	-27.841705	-54.18627	South America	NA	RIO GRANDE DO SUL	INDEPENDENCIA	366	237861	490125	21242	0.0433399642948228
SEEDGWAS2037	7419.15784553	-27.21666667	-49.65	South America	NA	SANTA CATARINA	RIO DO SUL	345	410214	317772	8182	0.0257480205933814
SEEDGWAS2038	7183.64300362	-27.11666667	-52.58333333	South America	NA	SANTA CATARINA	CHAPECO	745	327466	400520	15006	0.0374662938180366
SEEDGWAS2039	7183.64300362	-27.11666667	-52.58333333	South America	NA	SANTA CATARINA	CHAPECO	745	290416	437570	18958	0.0433256393262792
SEEDGWAS2040	7509.72333584	-22.733333	-45.133333	South America	NA	SAO PAULO	LORENA	525	384100	343886	10056	0.0292422488848048
SEEDGWAS2041	1127.27135929	28.23333333	-100.7333333	Mexico	NA		LA UNION	382	424574	303412	8260	0.0272237090161233
SEEDGWAS2042	7430.85374121	-23.55	-46.63333333	South America	NA	SAO PAULO	PEDERNEIRAS	771	233546	494440	21656	0.0437990453846776
SEEDGWAS2043	7182.95291064	-20.88333333	-47.61666667	South America	NA	SAO PAULO	BATATAIS	853	277281	450705	14903	0.0330659744178565
SEEDGWAS2044	7061.60857845	-20.756582	-48.92991	South America	NA	SAO PAULO	OLIMPIA	529	319357	408629	10620	0.0259893448580497
SEEDGWAS2046	1267.15263522	26.71666667	-108.3333333	Mexico	NA	MUNICIPIO DE CHOIX	CHICURAS	254	272350	455636	21521	0.0472328788769983
SEEDGWAS2047	1458.41353971	28.155757	-109.432449	Mexico	NA	MUNICIPIO TESOPACO	MOVAS	231	395618	332368	10209	0.0307159534010494
SEEDGWAS2048	1508.36946313	28.93333333	-109.1833333	Mexico	NA		ARIVECHI	488	351762	376224	14766	0.0392478948711406
SEEDGWAS2049	7020.74299146	-23.916667	-51.866667	South America	NA	PARANA	SAN PEDRO DO IVAI	339	340346	387640	10658	0.0274945826024146
SEEDGWAS2050	7222.98044275	-29.33333333	-54.16666667	South America	NA	RIO GRANDE DO SUL	ROCINHA	322	277045	450941	22220	0.049274738823926
SEEDGWAS2051	7137.61802111	-27.9431	-53.96135	South America	NA	RIO GRANDE DO SUL	CHIAPETA	414	291480	436506	19080	0.0437107393712801
SEEDGWAS2052	7157.07239137	-28.263266	-54.009359	South America	NA	RIO GRANDE DO SUL	CATUIPE	310	456742	271244	7457	0.0274918523543378
SEEDGWAS2053	7157.07239137	-28.263266	-54.009359	South America	NA	RIO GRANDE DO SUL	CATUIPE	310	310561	417425	14653	0.0351033119722106
SEEDGWAS2057	7450.53204565	-23.31666667	-46.23333333	South America	NA	SAO PAULO	SANTA ISABEL	701	305196	422790	19222	0.0454646514818231
SEEDGWAS2058	7184.407311	-21.16666667	-47.8	South America	NA	SAO PAULO	RIBEIRAO PRETO	546	302886	425100	18037	0.0424300164667137
SEEDGWAS2059	7042.80292424	-21.63582	-49.797833	South America	NA	SAO PAULO	GUAICARA	459	317848	410138	14616	0.0356367856672632
SEEDGWAS206	2486.60691002	9.166666667	-79.1	Central America	NA	Central America	IPETI RESERVA INDIGENA CHEPO	22	416387	311599	7962	0.0255520717332212
SEEDGWAS2061	7500.48801322	-12.43333333	-39.21666667	South America	NA	BAHIA	SANTO ESTEVAO	208	320848	407138	17330	0.0425654200786957
SEEDGWAS2065	7304.30571605	-21.83333333	-46.88333333	South America	NA	SAO PAULO	VARGEM GRANDE DO SUL	720	375206	352780	12472	0.035353478088327
SEEDGWAS2069	7183.210691	-28.461223	-53.849834	South America	NA	RIO GRANDE DO SUL	ALTO UNIAO	400	289669	438317	17062	0.0389261653095819
SEEDGWAS207	2423.2631759	7.916666667	-80.41666667	Central America	NA	LOS SANTOS	LA HONDA	33	314595	413391	17066	0.0412829500400347
SEEDGWAS2070	7145.54529059	-28.166197	-54.070144	South America	NA	RIO GRANDE DO SUL	COLONIA ALMAS	323	322567	405419	14154	0.0349120292832847
SEEDGWAS2071	7404.04458524	-27.742227	-50.29311	South America	NA	SANTA CATARINA	LAGES	939	277740	450246	19326	0.042923201982916
SEEDGWAS2073	315.337345806	18.797803	-103.142683	Mexico	NA	COALCOMAN	EL RINCON	1040	339231	388755	14099	0.0362670576584224
SEEDGWAS2075	621.813812186	16.58333333	-94.6	Mexico	NA	NILTEPEC	RIO GRANDE	74	318609	409377	14874	0.0363332576085124
SEEDGWAS2077	366.176936526	18.6781	-103.661841	Mexico	NA	COAHUAYANA	EL RANCHITO	23	291686	436300	19154	0.0439009855603942
SEEDGWAS2078	368.089405467	18.75	-103.666667	Mexico	NA		COAHUAYANA	23	355435	372551	14501	0.0389235299328146
SEEDGWAS2079	249.526235443	19.08164	-102.373599	Mexico	NA		APATZINGAN	302	298775	429211	18339	0.0427272367204009
SEEDGWAS208	2435.04813413	8.581789	-79.924861	Central America	NA	Central America	CABUYA CHAME	49	337938	390048	14634	0.0375184592665518
SEEDGWAS2080	190.248673418	18.96666667	-101.8	Mexico	NA		LA HUACANA	518	359300	368686	15626	0.0423829491762638
SEEDGWAS2081	144.505571932	17.97833333	-101.605	Mexico	NA		VALLECITO	442	292698	435288	17389	0.0399482641377663
SEEDGWAS2084	400.198859962	21.399889	-98.712616	Mexico	NA		TAMPACAN	298	283211	444775	19617	0.0441054465741105
SEEDGWAS2087	426.523620429	21.28333333	-97.96666667	Mexico	NA	CHONTLA	EL NARANJAL	150	346294	381692	14521	0.0380437630340694
SEEDGWAS209	2531.05842306	20.3	-76.21666667	Central America	NA	ORIENTE	VENTA DE CASANOVA CONTRAMAESTRE	102	448348	279638	8035	0.0287335769816692
SEEDGWAS2092	727.263227645	22.36666667	-105.5333333	Mexico	NA		EJIDO DE QUIMICHIS	7	364129	363857	12308	0.033826475785817
